rcid,airpt_cd,airpt_name,cntry_cd,atpco_cntry_cd,icao,city_cd,lat,lng,timezone,gmt,is_rail_road,is_bus_station,geoname_id,us_state_cd,atpco_zone,atpco_area
1,AAA,Anaa,PF,PF,NTGA,AAA,-17.050000,-145.416670,Pacific/Tahiti,-10,N,N,6947726,,340,3
2,AAB,Arrabury,AU,AU,YARY,AAB,-26.700000,141.041670,Australia/Brisbane,10,N,N,7730796,,340,3
3,AAC,"El Arish International Airport",EG,EG,HEAR,AAC,31.133333,33.750000,Africa/Cairo,2,N,N,6297289,,220,2
4,AAE,"Les Salines",DZ,DZ,DABB,AAE,36.821392,7.811857,Africa/Algiers,1,N,N,2570559,,210,2
5,AAF,"Apalachicola Regional",US,US,KAAF,AAF,29.733334,-84.983330,America/New_York,-5,N,N,4146153,,000,1
6,AAG,Arapoti,BR,BR,SSYA,AAG,-24.103611,-49.790000,America/Sao_Paulo,-2,N,N,3471795,,170,1
7,AAH,Aachen/Merzbruck,DE,DE,EDKA,AAH,50.750000,6.133333,Europe/Berlin,1,N,N,3247449,,210,2
8,AAI,Arraias,BR,BR,SWRA,AAI,-12.916667,-46.933334,America/Araguaina,-2,N,N,7668483,,170,1
9,AAJ,"Cayana Airstrip",SR,SR,,AAJ,3.900000,-55.366670,America/Paramaribo,-3,N,N,0,,140,1
10,AAK,Aranuka,KI,KI,NGUK,AAK,0.166667,173.583330,Pacific/Tarawa,12,N,N,7521791,,340,3
11,AAL,Aalborg,DK,DK,EKYT,AAL,57.086550,9.872241,Europe/Copenhagen,1,N,N,2624887,,210,2
12,AAM,"Mala Mala",ZA,ZA,FAMD,AAM,-24.800000,31.533333,Africa/Johannesburg,2,N,N,7668229,,230,2
13,AAN,"Al Ain",AE,AE,OMAL,AAN,24.260231,55.616627,Asia/Dubai,4,N,N,6300095,,220,2
14,AAO,Anaco,VE,VE,,AAO,9.431944,-64.463890,America/Caracas,-5,N,N,3486270,,170,1
15,AAQ,Anapa,RU,RU,URKA,AAQ,44.900000,37.316666,Europe/Moscow,4,N,N,6300989,,210,2
16,AAR,"Aarhus Airport",DK,DK,EKAH,AAR,56.308230,10.626351,Europe/Copenhagen,1,N,N,2611665,,210,2
17,AAS,Apalapsili,ID,ID,,AAS,-3.916667,139.250000,Asia/Jayapura,9,N,N,7730799,,320,3
18,AAT,Altay,CN,CN,ZWAT,AAT,47.750362,88.084440,Asia/Shanghai,8,N,N,7910421,,320,3
19,AAU,Asau,WS,WS,,AAU,-13.458333,-172.600000,Pacific/Apia,14,N,N,7667905,,,
20,AAV,"Allah Valley",PH,PH,,AAV,6.333333,124.766670,Asia/Manila,8,N,N,0,,320,3
21,AAW,Abbottabad,PK,PK,,AAW,34.200000,73.250000,Asia/Karachi,5,N,N,0,,330,3
22,AAX,Araxa,BR,BR,SBAX,AAX,-19.568056,-46.929170,America/Sao_Paulo,-2,N,N,7668431,,170,1
23,AAY,"Al Ghaydah",YE,YE,OYGD,AAY,16.195960,52.173256,Asia/Aden,3,N,N,7668412,,220,2
24,AAZ,Quetzaltenango,GT,GT,MGQZ,AAZ,14.870000,-91.500000,America/Guatemala,-6,N,N,6299804,,160,1
25,ABA,Abakan,RU,XU,UNAA,ABA,53.716667,91.500000,Asia/Krasnoyarsk,8,N,N,6300982,,360,3
26,ABB,"RAF Station",NG,NG,EGUD,ABB,51.666668,-1.283333,Africa/Lagos,1,N,N,7668214,,230,2
27,ABC,"Los Llanos",ES,ES,LEAB,ABC,38.948334,-1.863333,Europe/Madrid,1,N,N,6299323,,210,2
28,ABD,Abadan,IR,IR,OIAA,ABD,30.363905,48.226597,Asia/Tehran,4,N,N,6300034,,220,2
29,ABE,"Lehigh Valley International",US,US,KABE,ABE,40.651573,-75.434364,America/New_York,-5,N,N,5200013,PA,000,1
30,ABF,Abaiang,KI,KI,,ABF,1.670833,173.304170,Pacific/Tarawa,12,N,N,0,,340,3
31,ABG,Abingdon,AU,AU,,ABG,-17.666668,143.200000,Australia/Brisbane,10,N,N,8288517,,340,3
32,ABH,Alpha,AU,AU,YAPH,ABH,-23.650000,146.633330,Australia/Brisbane,10,N,N,7668679,,340,3
33,ABI,Municipal,US,US,KABI,ABI,32.409443,-99.679726,America/Chicago,-6,N,N,4669647,TX,000,1
34,ABJ,"Felix Houphouet Boigny",CI,CI,DIAP,ABJ,5.254879,-3.933015,Africa/Abidjan,0,N,N,6296433,,230,2
35,ABK,"Kabri Dar",ET,ET,HADK,ABK,6.733889,44.266110,Africa/Addis_Ababa,3,N,N,6297274,,230,2
36,ABL,Ambler,US,US,PAFM,ABL,67.087500,-157.845840,America/Anchorage,-9,N,N,5879298,,000,1
37,ABM,"Bamaga Injinoo",AU,AU,YBAM,ABM,-10.942619,142.450330,Australia/Brisbane,10,N,N,7730800,,340,3
38,ABN,Albina,SR,SR,,ABN,5.500000,-54.083332,America/Paramaribo,-3,N,N,3384792,,140,1
39,ABO,Aboisso,CI,CI,DIAO,ABO,5.433333,-3.216667,Africa/Abidjan,0,N,N,8260695,,230,2
40,ABP,Atkamba,PG,PG,,ABP,-6.066667,141.100000,Pacific/Port_Moresby,10,N,N,8299138,,340,3
41,ABQ,"Albuquerque International",US,US,KABQ,ABQ,35.049625,-106.617195,America/Denver,-7,N,N,5454724,NM,000,1
42,ABR,Municipal,US,US,KABR,ABR,45.452500,-98.426110,America/Chicago,-6,N,N,5225860,SD,000,1
43,ABS,"Abu Simbel",EG,EG,HEBL,ABS,22.367567,31.609774,Africa/Cairo,2,N,N,6452622,,220,2
44,ABT,Al-Aqiq,SA,SA,OEBA,ABT,20.294010,41.640020,Asia/Riyadh,3,N,N,6300010,,220,2
45,ABU,Atambua,ID,ID,WATA,ABU,-9.133333,124.883330,Asia/Makassar,8,N,N,7730801,,320,3
46,ABV,"Nnamdi Azikiwe International Airport",NG,NG,DNAA,ABV,9.004614,7.270447,Africa/Lagos,1,N,N,7649170,,230,2
47,ABW,Abau,PG,PG,,ABW,-10.183333,148.700000,Pacific/Port_Moresby,10,N,N,8260696,,340,3
48,ABX,Albury,AU,AU,YMAY,ABX,-36.069626,146.954530,Australia/Sydney,11,N,N,6301309,,340,3
49,ABY,"Dougherty County",US,US,KABY,ABY,31.532223,-84.196110,America/New_York,-5,N,N,4223821,GA,000,1
50,ABZ,Dyce,GB,GB,EGPD,ABZ,57.200253,-2.204186,Europe/London,0,N,N,6296624,,210,2
51,ACA,"General Juan N. Alvarez International",MX,MX,MMAA,ACA,16.762403,-99.754590,America/Mexico_City,-6,N,N,6299826,,000,1
52,ACB,"Antrim County",US,US,KACB,ACB,44.983334,-85.216670,America/Detroit,-5,N,N,4985583,MI,000,1
53,ACC,Kotoka,GH,GH,DGAA,ACC,5.607370,-0.171769,Africa/Accra,0,N,N,2306104,,230,2
54,ACD,Acandi,CO,CO,SKAD,ACD,8.516667,-77.300000,America/Bogota,-5,N,N,7668454,,000,1
55,ACE,Lanzarote,ES,ES,GCRR,ACE,28.950668,-13.609059,Atlantic/Canary,0,N,N,6297189,,210,2
56,ACH,Altenrhein,CH,CH,LSZR,ACH,47.483334,9.566667,Europe/Zurich,1,N,N,6299723,,210,2
57,ACI,"The Blaye",GG,GG,EGJA,ACI,49.709347,-2.215369,Europe/Guernsey,0,N,N,6296593,,,
58,ACJ,Anuradhapura,LK,LK,VCCA,ACJ,8.350000,80.383330,Asia/Colombo,6,N,N,1251081,,330,3
59,ACK,"Nantucket Memorial",US,US,KACK,ACK,41.256668,-70.059720,America/New_York,-5,N,N,4944927,MA,000,1
60,ACL,Aguaclara,CO,CO,,ACL,4.750000,-73.000000,America/Bogota,-5,N,N,0,,000,1
61,ACM,Arica,CO,CO,,ACM,-2.000000,-71.833336,America/Bogota,-5,N,N,8260724,,000,1
62,ACN,International,MX,MX,MMCC,ACN,29.300000,-100.916664,America/Matamoros,-6,N,N,7668344,,000,1
63,ACP,Sahand,IR,IR,OITM,ACP,37.347244,46.145115,Asia/Tehran,4,N,N,17839,,220,2
64,ACR,Araracuara,CO,CO,SKAC,ACR,-0.383333,-72.300000,America/Bogota,-5,N,N,7730802,,000,1
65,ACS,Achinsk,RU,XU,UNKS,ACS,56.266666,90.566666,Asia/Krasnoyarsk,8,N,N,7668523,,360,3
66,ACT,Municipal,US,US,KACT,ACT,31.609133,-97.223210,America/Chicago,-6,N,N,4739545,TX,000,1
67,ACU,Achutupo,PA,PA,,ACU,9.576389,-79.724440,America/Panama,-5,N,N,8299147,,170,1
68,ACV,Arcata,US,US,KACV,ACV,40.970913,-124.106926,America/Los_Angeles,-8,N,N,5558955,CA,000,1
69,ACX,Xingyi,CN,CN,,ACX,25.085556,104.959440,Asia/Shanghai,8,N,N,7910487,,320,3
70,ACY,"Atlantic City International",US,US,KACY,AIY,39.450703,-74.572235,America/New_York,-5,N,N,4500551,NJ,000,1
71,ACZ,"Zabol Airport",IR,IR,OIZB,ACZ,31.087694,61.542244,Asia/Tehran,4,N,N,6300083,,220,2
72,ADA,Adana,TR,TR,LTAF,ADA,36.985030,35.297360,Europe/Istanbul,2,N,N,6299727,,210,2
73,ADB,"Adnan Menderes Airport",TR,TR,LTBJ,IZM,38.294403,27.147594,Europe/Istanbul,2,N,N,6299750,,210,2
74,ADC,Andakombe,PG,PG,,ADC,-7.133333,145.733340,Pacific/Port_Moresby,10,N,N,2100827,,340,3
75,ADD,"Bole International",ET,ET,HAAB,ADD,8.983759,38.795900,Africa/Addis_Ababa,3,N,N,6297257,,230,2
76,ADE,International,YE,YE,OYAA,ADE,12.826116,45.037537,Asia/Aden,3,N,N,6300134,,220,2
77,ADF,Adiyaman,TR,TR,LTCP,ADF,37.750000,38.266666,Europe/Istanbul,2,N,N,6457345,,210,2
78,ADG,"Lenawee County",US,US,KADG,ADG,41.900000,-84.033330,America/Detroit,-5,N,N,4999082,,000,1
79,ADH,Aldan,RU,XU,UEEA,ADH,58.600000,125.400000,Asia/Yakutsk,10,N,N,7730803,,360,3
80,ADI,Arandis,NA,NA,FYAR,ADI,-22.400000,15.000000,Africa/Windhoek,2,N,N,7668263,,230,2
81,ADJ,"Marka International Airport",JO,JO,OJAM,AMM,31.975330,35.982770,Asia/Amman,3,N,N,250437,,220,2
82,ADK,"Adak Island Ns",US,US,PADK,ADK,51.882780,-176.644730,America/Adak,-10,N,N,6300161,AK,008,1
83,ADL,"Adelaide International Airport",AU,AU,YPAD,ADL,-34.938175,138.537350,Australia/Adelaide,11,N,N,6301322,,340,3
84,ADM,"Ardmore Municipal Airport",US,US,KADM,ADM,34.303055,-97.019450,America/Chicago,-6,N,N,4529475,,000,1
85,ADN,Andes,CO,CO,,ADN,5.666667,-75.933334,America/Bogota,-5,N,N,8298748,,000,1
86,ADO,Andamooka,AU,AU,YAMK,ADO,-31.016666,137.150000,Australia/Adelaide,11,N,N,7730805,,340,3
87,ADP,Ampara,LK,LK,,ADP,7.336389,81.625275,Asia/Colombo,6,N,N,6301061,,330,3
88,ADQ,"Kodiak Airport",US,US,PADQ,ADQ,57.755276,-152.512970,America/Anchorage,-9,N,N,5866583,AK,008,1
89,ADR,Andrews,US,US,KPHH,ADR,33.450000,-79.566666,America/New_York,-5,N,N,4569376,,000,1
90,ADS,"Addison Airport",US,US,KADS,DFW,32.783333,-97.300000,America/Chicago,-6,N,N,4669829,,000,1
91,ADT,"Ada Municipal",US,US,KADH,ADT,34.800000,-96.666664,America/Chicago,-6,N,N,4529103,,000,1
92,ADU,Ardabil,IR,IR,OITL,ADU,38.323826,48.421250,Asia/Tehran,4,N,N,6300077,,220,2
93,ADW,"Andrews AFB",US,US,,ADW,38.816666,-76.866670,America/New_York,-5,N,N,0,,000,1
94,ADX,Leuchars,GB,GB,EGQL,ADX,56.366670,-2.866667,Europe/London,0,N,N,6296639,,210,2
95,ADY,Alldays,ZA,ZA,FAAL,ADY,-22.666668,29.050000,Africa/Johannesburg,2,N,N,7668227,,230,2
96,ADZ,"San Andres Island",CO,CO,SKSP,ADZ,12.586047,-81.702210,America/Bogota,-5,N,N,6300759,,000,1
97,AEA,"Abemama Atoll",KI,KI,NGTB,AEA,0.483333,173.850000,Pacific/Tarawa,12,N,N,7521789,,340,3
98,AEB,Youjiang,CN,CN,,AEB,23.719470,106.967770,Asia/Shanghai,8,N,N,7910245,,320,3
99,AED,Aleneva,US,US,,AED,58.033333,-152.900000,America/Anchorage,-9,N,N,5879155,,000,1
100,AEE,Adareil,SS,SS,,AEE,10.056670,32.960960,Africa/Juba,3,N,N,8288524,,220,2
101,AEG,"Aek Godang",ID,ID,WIME,AEG,1.399722,99.416664,Asia/Jakarta,7,N,N,8298724,,320,3
102,AEH,Abéché,TD,TD,FTTC,AEH,13.851389,20.850834,Africa/Ndjamena,1,N,N,245786,,230,2
103,AEI,Algeciras,ES,ES,,AEI,36.128900,-5.441301,Europe/Madrid,1,N,N,2522013,,210,2
104,AEK,Aseki,PG,PG,,AEK,-7.366667,146.283340,Pacific/Port_Moresby,10,N,N,2100468,,340,3
105,AEL,"Albert Lea",US,US,KAEL,AEL,43.650000,-93.366670,America/Chicago,-6,N,N,5016033,,000,1
106,AEO,"Aioun El Atrouss",MR,MR,GQNA,AEO,16.709167,-9.635556,Africa/Nouakchott,0,N,N,6297233,,230,2
107,AEP,"Aeroparque Jorge Newbery",AR,AR,SABE,BUE,-34.556220,-58.416670,America/Argentina/Buenos_Aires,-3,N,N,6301847,,170,1
108,AER,"Sochi/Adler International Airport",RU,RU,URSS,AER,43.448840,39.941105,Europe/Moscow,4,N,N,6300995,,210,2
109,AES,Vigra,NO,NO,ENAL,AES,62.559643,6.116605,Europe/Oslo,1,N,N,6296719,,210,2
110,AET,Allakaket,US,US,PFAL,AET,66.561670,-152.658340,America/Anchorage,-9,N,N,5879223,,000,1
111,AEU,"Abu Musa",IR,IR,OIBA,AEU,25.887500,55.041668,Asia/Tehran,4,N,N,6300041,,220,2
112,AEX,"Alexandria International",US,US,KAEX,AEX,31.321268,-92.539580,America/Chicago,-6,N,N,8113669,LA,000,1
113,AEY,Akureyri,IS,IS,BIAR,AEY,65.654564,-18.075068,Atlantic/Reykjavik,0,N,N,6295706,,210,2
114,AFA,"San Rafael",AR,AR,SAMR,AFA,-34.589170,-68.400560,America/Argentina/Mendoza,-3,N,N,6300529,,170,1
115,AFD,"Port Alfred",ZA,ZA,FAPA,AFD,-33.583332,26.883333,Africa/Johannesburg,2,N,N,964433,,230,2
116,AFF,"USAF Academy Airstrip",US,US,KAFF,COS,38.833332,-104.700000,America/Denver,-7,N,N,5442475,,000,1
117,AFI,Amalfi,CO,CO,SKAM,AFI,6.916667,-75.066666,America/Bogota,-5,N,N,7730806,,000,1
118,AFK,"Kondavattavan Tank",LK,LK,,ADP,40.668888,-96.006940,Asia/Colombo,6,N,N,0,,330,3
119,AFL,"Alta Floresta",BR,BR,SBAT,AFL,-9.872456,-56.104767,America/Cuiaba,-3,N,N,6316343,,170,1
120,AFN,Municipal,US,US,KAFN,AFN,42.833332,-72.066666,America/New_York,-5,N,N,5088066,,000,1
121,AFO,Municipal,US,US,KAFO,AFO,42.733334,-110.933334,America/Denver,-7,N,N,5816866,,000,1
122,AFR,Afore,PG,PG,,AFR,-9.133333,148.383330,Pacific/Port_Moresby,10,N,N,2101332,,340,3
123,AFS,Zarafshan,UZ,UZ,UTSN,AFS,41.613610,64.233055,Asia/Samarkand,5,N,N,7730807,,320,3
124,AFT,"Afutara Aerodrome",SB,SB,AGAF,AFT,-9.200000,160.850000,Pacific/Guadalcanal,11,N,N,8298931,,340,3
125,AFW,"Fort Worth Alliance",US,US,KAFW,DFW,32.986668,-97.316666,America/Chicago,-6,N,N,4691932,,000,1
126,AFY,Afyon,TR,TR,LTAH,AFY,38.733334,30.600000,Europe/Istanbul,2,N,N,6299728,,210,2
127,AFZ,Sabzevar,IR,IR,OIMS,AFZ,36.171513,57.603320,Asia/Tehran,4,N,N,6300067,,220,2
128,AGA,"Agadir Almassira",MA,MA,GMAD,AGA,30.378326,-9.555895,Africa/Casablanca,0,N,N,6297198,,210,2
129,AGB,"Augsburg - Muehlhausen",DE,DE,EDMA,MUC,48.425278,10.931667,Europe/Berlin,1,N,N,3208383,,210,2
130,AGC,"Allegheny County",US,US,KAGC,PIT,40.354720,-79.930000,America/New_York,-5,N,N,5178041,PA,000,1
131,AGD,Anggi,ID,ID,,AGD,-1.383333,133.866670,Asia/Jayapura,9,N,N,7730808,,320,3
132,AGE,Flugplatz,DE,DE,,AGE,53.783333,7.916667,Europe/Berlin,1,N,N,2814266,,210,2
133,AGF,"La Garenne",FR,FR,LFBA,AGF,44.173610,0.598611,Europe/Paris,1,N,N,6299365,,210,2
134,AGG,Angoram,PG,PG,,AGG,-4.168611,144.073880,Pacific/Port_Moresby,10,N,N,2100765,,340,3
135,AGH,Angelholm,SE,SE,ESDB,AGH,56.293056,12.862500,Europe/Stockholm,1,N,N,6452618,,210,2
136,AGI,Wageningen,SR,SR,SMWA,AGI,5.833333,-56.833332,America/Paramaribo,-3,N,N,7668468,,140,1
137,AGJ,Aguni,JP,JP,RORA,AGJ,26.589722,127.238050,Asia/Tokyo,9,N,N,6300465,,310,3
138,AGK,Kagua,PG,PG,,AGK,-6.403333,143.846660,Pacific/Port_Moresby,10,N,N,2095091,,340,3
139,AGL,Wanigela,PG,PG,AYWG,AGL,-9.340278,149.155270,Pacific/Port_Moresby,10,N,N,2132313,,340,3
140,AGM,Tasiilaq,GL,GL,BGAM,AGM,65.600000,-37.683334,America/Godthab,-3,N,N,3424607,,120,1
141,AGN,Angoon,US,US,PAGN,AGN,57.503887,-134.583330,America/Juneau,-9,N,N,5844374,AK,008,1
142,AGO,Municipal,US,US,KAGO,AGO,33.266666,-93.233330,America/Chicago,-6,N,N,4120332,,000,1
143,AGP,"Pablo Ruiz Picasso",ES,ES,LEMG,AGP,36.675182,-4.489616,Europe/Madrid,1,N,N,6299346,,210,2
144,AGR,Kheria,IN,IN,VIAG,AGR,27.158333,77.962776,Asia/Kolkata,6,N,N,6301090,,330,3
145,AGS,"Bush Field",US,US,KAGS,AGS,33.373665,-81.973434,America/New_York,-5,N,N,4185424,GA,000,1
146,AGT,"Alejo Garcia",PY,PY,SGES,AGT,-25.500000,-54.833332,America/Asuncion,-3,N,N,6300730,,170,1
147,AGU,Aguascalients,MX,MX,MMAS,AGU,21.701416,-102.313740,America/Mexico_City,-6,N,N,6299828,,000,1
148,AGV,Acarigua,VE,VE,SVAC,AGV,9.552222,-69.233330,America/Caracas,-5,N,N,6300839,,170,1
149,AGW,Agnew,AU,AU,,AGW,-12.150000,142.150000,Australia/Brisbane,10,N,N,7730809,,340,3
150,AGX,"Agatti Island",IN,IN,VOAT,AGX,10.828967,72.179870,Asia/Kolkata,6,N,N,7668633,,330,3
151,AGZ,Aggeneys,ZA,ZA,FAAG,AGZ,-29.050000,18.850000,Africa/Johannesburg,2,N,N,6453433,,230,2
152,AHA,"Naha AFB",JP,JP,,OKA,26.200000,127.650000,Asia/Tokyo,9,N,N,0,,310,3
153,AHB,Abha,SA,SA,OEAB,AHB,18.234290,42.657574,Asia/Riyadh,3,N,N,6300008,,220,2
154,AHC,"Amedee AAF",US,US,,AHC,40.150000,-120.133330,America/Los_Angeles,-8,N,N,5565015,,000,1
155,AHD,Downtown,US,US,K1F0,ADM,34.166668,-97.133330,America/Chicago,-6,N,N,4529471,,000,1
156,AHE,"Ahe Airport",PF,PF,NTHE,AHE,-14.428056,-146.256940,Pacific/Tahiti,-10,N,N,7668372,,340,3
157,AHF,Municipal,US,US,,AHF,40.300000,-99.900000,America/Chicago,-6,N,N,5063104,,000,1
158,AHH,Municipal,US,US,KAHH,AHH,45.300000,-92.350000,America/Chicago,-6,N,N,5243875,,000,1
159,AHI,Amahai,ID,ID,WAPA,AHI,-3.333333,128.916670,Asia/Jayapura,9,N,N,6301199,,320,3
160,AHL,Aishalton,GY,GY,SYAH,AHL,2.483333,-59.316666,America/Guyana,-4,N,N,7730810,,140,1
161,AHM,"Sumner Parker Field",US,US,,AHM,NULL,NULL,America/Los_Angeles,-8,N,N,0,,000,1
162,AHN,"Athens-Ben Epps",US,US,KAHN,AHN,33.951950,-83.324720,America/New_York,-5,N,N,4180419,GA,000,1
163,AHO,Fertilia,IT,IT,LIEA,AHO,40.630405,8.295891,Europe/Rome,1,N,N,6299565,,210,2
164,AHS,Ahuas,HN,HN,MHAH,AHS,15.441667,-84.425000,America/Tegucigalpa,-6,N,N,7730656,,160,1
165,AHU,"Charif Al Idrissi",MA,MA,GMTA,AHU,35.179720,-3.836944,Africa/Casablanca,0,N,N,6297218,,210,2
166,AHW,"Saih Rawl",OM,OM,,AHW,31.342920,48.746680,Asia/Muscat,4,N,N,8299030,,220,2
167,AHY,Ambatolahy,MG,MG,,AHY,-20.016666,45.533333,Indian/Antananarivo,3,N,N,0,,230,2
168,AHZ,"Alpe D Huez",FR,FR,LFHU,AHZ,45.083332,6.083333,Europe/Paris,1,N,N,6694609,,210,2
169,AIA,Alliance,US,US,KAIA,AIA,42.051666,-102.806660,America/Denver,-7,N,N,5693178,NE,000,1
170,AIB,"Anita Bay",US,US,,AIB,56.233334,-132.383330,America/Sitka,-9,N,N,8299096,,000,1
171,AIC,Airok,MH,MH,,AIC,7.500000,170.833330,Pacific/Majuro,12,N,N,0,,370,3
172,AID,Municipal,US,US,KAID,AID,40.166668,-85.683334,America/Indiana/Indianapolis,-5,N,N,4917602,IN,000,1
173,AIE,Aiome,PG,PG,,AIE,-5.166667,144.666670,Pacific/Port_Moresby,10,N,N,8224675,,340,3
174,AIF,Assis,BR,BR,SNAX,AIF,-22.666668,-50.416668,America/Sao_Paulo,-2,N,N,8298688,,170,1
175,AIG,Yalinga,CF,CF,FEFY,AIG,6.516667,23.250000,Africa/Bangui,1,N,N,6296981,,230,2
176,AIH,Aiambak,PG,PG,,AIH,-7.348611,141.266390,Pacific/Port_Moresby,10,N,N,2101258,,340,3
177,AII,Alisabieh,DJ,DJ,HDAS,AII,11.150000,42.716667,Africa/Djibouti,3,N,N,7730606,,230,2
178,AIK,Municipal,US,US,KAIK,AIK,33.566666,-81.716670,America/New_York,-5,N,N,4569089,,000,1
179,AIL,Ailigandi,PA,PA,,AIL,9.250000,-78.083336,America/Panama,-5,N,N,0,,170,1
180,AIM,"Ailuk Island",MH,MH,,AIM,10.200000,169.983340,Pacific/Majuro,12,N,N,0,,370,3
181,AIN,Wainwright,US,US,PAWT,AIN,70.633330,-160.033340,America/Anchorage,-9,N,N,5877544,,000,1
182,AIO,Municipal,US,US,KAIO,AIO,41.400000,-95.016670,America/Chicago,-6,N,N,4847395,,000,1
183,AIP,"Ailinglapalap Island",MH,MH,,AIP,7.266667,168.816670,Pacific/Majuro,12,N,N,0,,370,3
184,AIR,Aripuana,BR,BR,SWRP,AIR,-10.250000,-59.383330,America/Cuiaba,-3,N,N,7730811,,170,1
185,AIS,"Arorae Island",KI,KI,NGTR,AIS,-2.650000,176.833330,Pacific/Tarawa,12,N,N,6299955,,340,3
186,AIT,Aitutaki,CK,CK,NCAI,AIT,-18.829443,-159.767000,Pacific/Rarotonga,-10,N,N,0,,340,3
187,AIU,"Atiu Island",CK,CK,NCAT,AIU,-20.033333,-158.100000,Pacific/Rarotonga,-10,N,N,7730684,,340,3
188,AIV,"George Downer",US,US,KAIV,AIV,33.133330,-88.150000,America/Chicago,-6,N,N,4829885,,000,1
189,AIW,Ai-ais,NA,NA,,AIW,-27.983334,17.583332,Africa/Windhoek,2,N,N,8260776,,230,2
190,AIZ,"Lee C Fine Memorial",US,US,KAIZ,AIZ,38.098330,-92.547220,America/Chicago,-6,N,N,4394825,MO,000,1
191,AJA,"Campo Dell Oro",FR,FR,LFKJ,AJA,41.919870,8.794013,Europe/Paris,1,N,N,6299395,,210,2
192,AJF,Jouf,SA,SA,OESK,AJF,29.788668,40.101486,Asia/Riyadh,3,N,N,399410,,220,2
193,AJI,Agri,TR,TR,LTCO,AJI,39.650000,43.025000,Europe/Istanbul,2,N,N,7668332,,210,2
194,AJJ,Akjoujt,MR,MR,GQNJ,AJJ,19.730556,-14.374444,Africa/Nouakchott,0,N,N,6297238,,230,2
195,AJK,Araak,IR,IR,OIHR,AJK,34.133330,49.833332,Asia/Tehran,4,N,N,7431358,,220,2
196,AJL,Aizawl,IN,IN,VEAZ,AJL,23.838985,92.624820,Asia/Kolkata,6,N,N,0,,330,3
197,AJN,Ouani,KM,KM,FMCV,AJN,-12.126389,44.429720,Indian/Comoro,3,N,N,6297032,,230,2
198,AJR,Arvidsjaur,SE,SE,ESNX,AJR,65.591390,19.285557,Europe/Stockholm,1,N,N,6452624,,210,2
199,AJS,Abreojos,MX,MX,,AJS,26.833332,-113.666664,America/Mazatlan,-7,N,N,7730813,,000,1
200,AJU,"Santa Maria",BR,BR,SBAR,AJU,-10.987206,-37.072792,America/Maceio,-3,N,N,6300597,,170,1
201,AJY,Agades,NE,NE,DRZA,AJY,16.964167,7.993056,Africa/Niamey,1,N,N,6296458,,230,2
202,AKA,Ankang,CN,CN,ZLAK,AKA,32.709100,108.936000,Asia/Shanghai,8,N,N,7730814,,320,3
203,AKB,Atka,US,US,PAAK,AKB,52.217220,-174.200840,America/Adak,-10,N,N,5879733,,000,1
204,AKC,"Fulton International",US,US,KAKR,CAK,41.040000,-81.467780,America/New_York,-5,N,N,5145491,,000,1
205,AKD,Akola,IN,IN,VAAK,AKD,20.666668,77.083336,Asia/Kolkata,6,N,N,6301030,,330,3
206,AKE,Akieni,GA,GA,,AKE,-1.172222,13.916667,Africa/Libreville,1,N,N,7730815,,230,2
207,AKF,Kufrah,LY,LY,HLKF,AKF,24.200000,23.333332,Africa/Tripoli,1,N,N,6297329,,230,2
208,AKG,Anguganak,PG,PG,,AKG,-3.633333,142.016660,Pacific/Port_Moresby,10,N,N,7730816,,340,3
209,AKH,"Prince Sultan Air Base",SA,SA,OEPS,AKH,24.063334,47.580555,Asia/Riyadh,3,N,N,7730740,,220,2
210,AKI,Akiak,US,US,PFAK,AKI,60.905556,-161.223330,America/Anchorage,-9,N,N,5878993,,000,1
211,AKJ,Asahikawa,JP,JP,RJEC,AKJ,43.671090,142.454540,Asia/Tokyo,9,N,N,6300340,,310,3
212,AKK,"Akhiok SPB",US,US,PAKH,AKK,56.944443,-154.166670,America/Anchorage,-9,N,N,5878982,,000,1
213,AKL,"Auckland International",NZ,NZ,NZAA,AKL,-37.004787,174.783520,Pacific/Auckland,13,N,N,6232134,,340,3
214,AKM,Zakouma,TD,TD,,AKM,10.883333,19.816668,Africa/Ndjamena,1,N,N,2424121,,230,2
215,AKN,"King Salmon",US,US,PAKN,AKN,58.682740,-156.669020,America/Anchorage,-9,N,N,5866330,AK,008,1
216,AKO,"Colorado Plains Regional Airport",US,US,KAKO,AKO,40.166668,-103.216670,America/Denver,-7,N,N,5574204,,000,1
217,AKP,Anaktuvuk,US,US,PAKP,AKP,68.137500,-151.740000,America/Anchorage,-9,N,N,5879389,AK,008,1
218,AKQ,"Gunung Batin",ID,ID,,AKQ,-4.616667,105.233330,Asia/Jakarta,7,N,N,7730817,,320,3
219,AKR,Akure,NG,NG,DNAK,AKR,7.250000,5.083333,Africa/Lagos,1,N,N,7730064,,230,2
220,AKS,Gwaunaru'u,SB,SB,AGGA,AKS,-8.697778,160.680830,Pacific/Guadalcanal,11,N,N,7668064,,340,3
221,AKT,"Raf Akrotiri",CY,CY,LCRA,AKT,34.583332,32.983334,Asia/Nicosia,2,N,N,414605,,210,2
222,AKU,Aksu,CN,CN,ZWAK,AKU,41.259983,80.292620,Asia/Shanghai,8,N,N,7668809,,320,3
223,AKV,Akulivik,CA,CA,CYKO,AKV,60.733334,-78.583336,America/Montreal,-5,N,N,6296219,,000,1
224,AKW,Aghajari,IR,IR,,AKW,30.750000,49.683334,Asia/Tehran,4,N,N,0,AK,220,2
225,AKX,Aktyubinsk,KZ,KZ,UATT,AKX,50.249336,57.211403,Asia/Aqtobe,5,N,N,6300922,,320,3
226,AKY,Civil,MM,MM,VYSW,AKY,20.130278,92.880280,Asia/Rangoon,7,N,N,1329416,,320,3
227,ALA,Almaty,KZ,KZ,UAAA,ALA,43.346653,77.011450,Asia/Almaty,6,N,N,6300913,,320,3
228,ALB,"Albany International",US,US,KALB,ALB,42.745277,-73.809555,America/New_York,-5,N,N,5106842,NY,000,1
229,ALC,"Alicante El Altet",ES,ES,LEAL,ALC,38.287098,-0.557381,Europe/Madrid,1,N,N,6255112,,210,2
230,ALD,Alerta,PE,PE,SPAR,ALD,-11.683333,-69.333336,America/Lima,-5,N,N,6453428,,170,1
231,ALE,Alpine,US,US,KE38,ALE,30.416668,-103.750000,America/Chicago,-6,N,N,5516210,,000,1
232,ALF,Alta,NO,NO,ENAT,ALF,69.977165,23.355808,Europe/Oslo,1,N,N,6296721,,210,2
233,ALG,"Houari Boumediene",DZ,DZ,DAAG,ALG,36.700580,3.211670,Africa/Algiers,1,N,N,6296363,,210,2
234,ALH,Albany,AU,AU,YABA,ALH,-34.944996,117.804000,Australia/Perth,8,N,N,2078285,,340,3
235,ALI,International,US,US,KALI,ALI,27.750000,-98.066666,America/Chicago,-6,N,N,4670241,,000,1
236,ALJ,Kortdoorn,ZA,ZA,FAAB,ALJ,-28.567223,16.536388,Africa/Johannesburg,2,N,N,6296877,,230,2
237,ALK,Asela,ET,ET,,ALK,7.966667,39.116670,Africa/Addis_Ababa,3,N,N,8298815,,230,2
238,ALL,Albenga,IT,IT,LIMG,ALL,44.050000,8.216667,Europe/Rome,1,N,N,6299577,,210,2
239,ALM,Municipal,US,US,KALM,ALM,32.845833,-105.985275,America/Denver,-7,N,N,5454632,NM,000,1
240,ALN,Alton,US,US,KALN,ALN,38.891666,-90.048330,America/Chicago,-6,N,N,4248995,IL,000,1
241,ALO,Waterloo,US,US,KALO,ALO,42.556110,-92.399720,America/Chicago,-6,N,N,4880900,IA,000,1
242,ALP,Nejrab,SY,SY,OSAP,ALP,36.185352,37.227074,Asia/Damascus,2,N,N,6300127,,220,2
243,ALQ,Federal,BR,BR,SSLT,ALQ,-29.799723,-55.763332,America/Sao_Paulo,-2,N,N,8260983,,170,1
244,ALR,Alexandra,NZ,NZ,NZLX,ALR,-45.213890,169.369450,Pacific/Auckland,13,N,N,6452626,,340,3
245,ALS,Municipal,US,US,KALS,ALS,37.436670,-105.866670,America/Denver,-7,N,N,5437699,CO,000,1
246,ALT,Alenquer,BR,BR,,ALT,-1.933333,-54.766666,America/Santarem,-3,N,N,3407980,,170,1
247,ALU,Alula,SO,SO,HCMA,ALU,11.966667,50.800000,Africa/Mogadishu,3,N,N,7730597,,230,2
248,ALW,"Walla Walla",US,US,KALW,ALW,46.094723,-118.291115,America/Los_Angeles,-8,N,N,5814917,WA,000,1
249,ALX,"Thomas C Russell Field",US,US,ALX_,ALX,32.933334,-85.950000,America/Chicago,-6,N,N,4829843,,000,1
250,ALY,"El Nohza",EG,EG,HEAX,ALY,31.192545,29.953058,Africa/Cairo,2,N,N,6297291,,220,2
251,ALZ,"Alitak SPB",US,US,,ALZ,56.895832,-154.245830,America/Anchorage,-9,N,N,5879209,,000,1
252,AMA,"Rick Husband Amarillo International",US,US,KAMA,AMA,35.218273,-101.705130,America/Chicago,-6,N,N,5516243,TX,000,1
253,AMB,Ambilobe,MG,MG,,AMB,-13.183333,48.983334,Indian/Antananarivo,3,N,N,0,,230,2
254,AMC,"Am Timan",TD,TD,FTTN,AMC,11.033333,20.283333,Africa/Ndjamena,1,N,N,6297099,,230,2
255,AMD,Ahmedabad,IN,IN,VAAH,AMD,23.066390,72.624170,Asia/Kolkata,6,N,N,6301029,,330,3
256,AME,"Alto Molocue",MZ,MZ,,AME,-15.833333,37.583332,Africa/Maputo,2,N,N,0,,230,2
257,AMF,Ama,PG,PG,,AMF,-4.166667,141.666670,Pacific/Port_Moresby,10,N,N,2100991,,340,3
258,AMG,Amboin,PG,PG,,AMG,-4.616667,143.700000,Pacific/Port_Moresby,10,N,N,7910500,,340,3
259,AMH,"Arba Mintch",ET,ET,HAAM,AMH,6.036111,37.576942,Africa/Addis_Ababa,3,N,N,6297259,,230,2
260,AMJ,Almenara,BR,BR,SNAR,AMJ,-16.183332,-40.683334,America/Sao_Paulo,-2,N,N,7730821,,170,1
261,AMK,"Animas Airpark",US,US,,DRO,37.150000,-107.750000,America/Denver,-7,N,N,5411873,,000,1
262,AMM,"Queen Alia International",JO,JO,OJAI,AMM,31.722534,35.989320,Asia/Amman,3,N,N,393598,,220,2
263,AMN,"Gratiot Community",US,US,KAMN,AMN,43.383330,-84.650000,America/Detroit,-5,N,N,4994536,,000,1
264,AMO,Mao,TD,TD,,AMO,14.116667,15.316667,Africa/Ndjamena,1,N,N,2428394,,230,2
265,AMP,Ampanihy,MG,MG,FMSY,AMP,-24.700000,44.733334,Indian/Antananarivo,3,N,N,7730515,,230,2
266,AMQ,Pattimura,ID,ID,WAPP,AMQ,-3.704996,128.088880,Asia/Jayapura,9,N,N,6301203,,320,3
267,AMR,Arno,MH,MH,,AMR,7.033333,171.233340,Pacific/Majuro,12,N,N,0,,370,3
268,AMS,Schiphol,NL,NL,EHAM,AMS,52.309070,4.763385,Europe/Amsterdam,1,N,N,6296680,,210,2
269,AMT,Amata,AU,AU,YAMT,AMT,-26.766666,132.033340,Australia/Adelaide,11,N,N,7730823,,340,3
270,AMU,Amanab,PG,PG,,AMU,-3.516667,141.150000,Pacific/Port_Moresby,10,N,N,2100976,,340,3
271,AMV,Amderma,RU,RU,ULDD,AMV,69.766670,61.550000,Europe/Moscow,4,N,N,7668515,,210,2
272,AMW,Ames,US,US,KAMW,AMW,41.994167,-93.618330,America/Chicago,-6,N,N,4846850,,000,1
273,AMX,Ammaroo,AU,AU,YAMM,AMX,-21.740000,135.240000,Australia/Darwin,10,N,N,7730824,,340,3
274,AMY,Ambatomainty,MG,MG,,AMY,-17.683332,45.666668,Indian/Antananarivo,3,N,N,8299261,,230,2
275,AMZ,Ardmore,NZ,NZ,NZAR,AMZ,-37.033333,174.966660,Pacific/Auckland,13,N,N,7730139,,340,3
276,ANA,"John Wayne International",US,US,,ANA,33.816666,-117.933334,America/Los_Angeles,-8,N,N,5323810,,000,1
277,ANB,"Anniston Metropolitan",US,US,KANB,ANB,33.590280,-85.855835,America/Chicago,-6,N,N,4830211,AL,000,1
278,ANC,"Ted Stevens Anchorage International Airport",US,US,PANC,ANC,61.174442,-149.996380,America/Anchorage,-9,N,N,5879400,AK,008,1
279,AND,Anderson,US,US,KAND,AND,34.493610,-82.710000,America/New_York,-5,N,N,4569314,SC,000,1
280,ANE,Marce,FR,FR,LFJR,ANE,47.466667,-0.550000,Europe/Paris,1,N,N,6458614,,210,2
281,ANF,"Cerro Moreno",CL,CL,SCFA,ANF,-23.449000,-70.440790,America/Santiago,-3,N,N,3899539,,170,1
282,ANG,Brie-Champniers,FR,FR,LFBU,ANG,45.733334,0.216667,Europe/Paris,1,N,N,6694763,,210,2
283,ANI,Aniak,US,US,PANI,ANI,61.574398,-159.536970,America/Anchorage,-9,N,N,5879490,AK,008,1
284,ANJ,Zanaga,CG,CG,,ANJ,-2.850000,13.833333,Africa/Brazzaville,1,N,N,2254814,,230,2
285,ANK,Etimesgut,TR,TR,LTAD,ANK,39.983334,32.833332,Europe/Istanbul,2,N,N,6301794,,210,2
286,ANL,Andulo,AO,AO,,ANL,-11.250000,17.250000,Africa/Luanda,1,N,N,8260993,,230,2
287,ANM,Antsirabato,MG,MG,FMNH,ANM,-15.000000,50.316666,Indian/Antananarivo,3,N,N,6297045,,230,2
288,ANN,"Annette Island",US,US,PANT,ANN,55.036945,-131.570560,America/Metlakatla,-8,N,N,5557843,,000,1
289,ANO,Angoche,MZ,MZ,,ANO,-16.177778,39.936943,Africa/Maputo,2,N,N,0,,230,2
290,ANP,Lee,US,US,KANP,ANP,38.983334,-76.500000,America/New_York,-5,N,N,4360491,,000,1
291,ANQ,"Tri-State Steuben County",US,US,KANQ,ANQ,41.633330,-85.000000,America/Indiana/Indianapolis,-5,N,N,4927311,,000,1
292,ANR,"Deurne/ Antwerp Airport",BE,BE,EBAW,ANR,51.189160,4.450672,Europe/Brussels,1,N,N,6296483,,210,2
293,ANS,Andahuaylas,PE,PE,SPHY,ANS,-13.716667,-73.355835,America/Lima,-5,N,N,6300804,,170,1
294,ANT,"St Anton",AT,AT,,ANT,47.150000,10.283333,Europe/Vienna,1,N,N,0,,210,2
295,ANU,"V. C. Bird International",AG,AG,TAPA,ANU,17.108334,-61.763890,America/Antigua,-4,N,N,3575954,,140,1
296,ANV,Anvik,US,US,PANV,ANV,62.647778,-160.188890,America/Anchorage,-9,N,N,5879553,,000,1
297,ANW,Ainsworth,US,US,KANW,ANW,42.550000,-99.866670,America/Chicago,-6,N,N,5062776,,000,1
298,ANX,"Andøya Lufthavn, Andenes",NO,NO,ENAN,ANX,69.304920,16.133326,Europe/Oslo,1,N,N,3163146,,210,2
299,ANY,Anthony,US,US,KANY,ANY,37.150000,-98.033330,America/Chicago,-6,N,N,4267608,,000,1
300,ANZ,"Angus Downs",AU,AU,,ANZ,-25.083332,132.166670,Australia/Darwin,10,N,N,8298801,,340,3
301,AOB,Annanberg,PG,PG,,AOB,-4.916667,144.650000,Pacific/Port_Moresby,10,N,N,2100742,,340,3
302,AOC,"Altenburg Nobitz",DE,DE,EDAC,AOC,50.983334,12.450000,Europe/Berlin,1,N,N,6296505,,210,2
303,AOD,"Abou Deia",TD,TD,,AOD,11.474722,19.288889,Africa/Ndjamena,1,N,N,0,,230,2
304,AOE,"Anadolu University",TR,TR,LTBY,ESK,39.810000,30.519444,Europe/Istanbul,2,N,N,7730326,,210,2
305,AOG,Anshan,CN,CN,ZYAS,AOG,41.166668,123.033330,Asia/Shanghai,8,N,N,7730825,,320,3
306,AOH,"Allen County",US,US,KAOH,AOH,40.766666,-84.100000,America/New_York,-5,N,N,5160784,,000,1
307,AOI,Falconara,IT,IT,LIPY,AOI,43.606910,13.355723,Europe/Rome,1,N,N,6299602,,210,2
308,AOJ,Aomori,JP,JP,RJSA,AOJ,40.738758,140.689220,Asia/Tokyo,9,N,N,6300388,,310,3
309,AOK,Karpathos,GR,GR,LGKP,AOK,35.420685,27.146729,Europe/Athens,2,N,N,6299494,,210,2
310,AOL,"Paso De Los Libres",AR,AR,SARL,AOL,-29.683332,-57.150000,America/Argentina/Cordoba,-3,N,N,6300550,,170,1
311,AOM,Adam,OM,OM,,AOM,40.738758,140.689220,Asia/Muscat,4,N,N,8298665,,220,2
312,AON,Arona,PG,PG,,AON,-6.333333,146.000000,Pacific/Port_Moresby,10,N,N,2100541,,340,3
313,AOO,Martinsburg,US,US,KAOO,AOO,40.297222,-78.320000,America/New_York,-5,N,N,5200055,PA,000,1
314,AOP,Andoas,PE,PE,,AOP,-2.904640,-76.402360,America/Lima,-5,N,N,3699659,,170,1
315,AOR,"Alor Setar",MY,MY,WMKA,AOR,6.201171,100.405266,Asia/Kuala_Lumpur,8,N,N,6452629,,320,3
316,AOS,Amook,US,US,,AOS,57.466667,-153.833330,America/Anchorage,-9,N,N,5879326,,000,1
317,AOT,"Corrado Gex",IT,IT,LIMW,AOT,45.738610,7.362500,Europe/Rome,1,N,N,7668320,,210,2
318,AOU,Attopeu,LA,LA,VLAP,AOU,14.800000,106.833336,Asia/Vientiane,7,N,N,6301105,,320,3
319,APA,"Arapahoe Co",US,US,KAPA,DEN,39.733334,-104.983330,America/Denver,-7,N,N,5412057,,000,1
320,APB,Apolo,BO,BO,SLAP,APB,-14.716667,-68.516670,America/La_Paz,-4,N,N,6300764,,170,1
321,APC,"Napa County",US,US,KAPC,APC,38.212223,-122.280000,America/Los_Angeles,-8,N,N,5376102,,000,1
322,APE,"San Juan Aposento",PE,PE,,APE,-11.933333,-69.083336,America/Lima,-5,N,N,0,,170,1
323,APF,Naples,US,US,KAPF,APF,26.152779,-81.775276,America/New_York,-5,N,N,4165575,FL,000,1
324,APG,"Phillips AAF",US,US,,APG,39.500000,-76.166664,America/New_York,-5,N,N,0,,000,1
325,APH,"Camp A P Hill",US,US,,APH,38.050000,-77.350000,America/New_York,-5,N,N,0,,000,1
326,API,Apiay,CO,CO,,API,4.068889,-73.051940,America/Bogota,-5,N,N,3689790,,000,1
327,APK,Apataki,PF,PF,NTGD,APK,-15.416667,-146.083330,Pacific/Tahiti,-10,N,N,7730695,,340,3
328,APL,Nampula,MZ,MZ,FQNP,APL,-15.101667,39.287224,Africa/Maputo,2,N,N,1092770,,230,2
329,APN,"Alpena County Regional",US,US,KAPN,APN,45.081670,-83.555830,America/Detroit,-5,N,N,4984078,MI,000,1
330,APO,Apartado,CO,CO,SKLC,APO,7.817678,-76.717660,America/Bogota,-5,N,N,6300744,,000,1
331,APP,Asapa,PG,PG,,APP,-8.983333,148.133330,Pacific/Port_Moresby,10,N,N,8299073,,340,3
332,APQ,Arapiraca,BR,BR,SNAL,APQ,-9.750000,-36.650000,America/Maceio,-3,N,N,7730827,,170,1
333,APR,"April River",PG,PG,,APR,-8.500000,145.000000,Pacific/Port_Moresby,10,N,N,8298703,,340,3
334,APS,Anapolis,BR,BR,SBAN,APS,-16.333332,-48.966667,America/Sao_Paulo,-2,N,N,6300596,,170,1
335,APT,"Marion County",US,US,,APT,35.066666,-85.500000,America/Chicago,-6,N,N,0,,000,1
336,APU,Apucarana,BR,BR,SSAP,APU,-23.550000,-51.483334,America/Sao_Paulo,-2,N,N,7668471,,170,1
337,APV,"Apple Valley",US,US,KAPV,APV,34.526390,-117.212776,America/Los_Angeles,-8,N,N,5324369,,000,1
338,APW,Faleolo,WS,WS,NSFA,APW,-13.832793,-171.997240,Pacific/Apia,14,N,N,6299961,,,
339,APX,Arapongas,BR,BR,SSOG,APX,-23.483334,-51.466667,America/Sao_Paulo,-2,N,N,7668475,,170,1
340,APY,"Alto Parnaiba",BR,BR,,APY,-9.133333,-45.933334,America/Fortaleza,-3,N,N,8260719,,170,1
341,APZ,Zapala,AR,AR,SAHZ,APZ,-38.916668,-70.083336,America/Argentina/Salta,-3,N,N,7730148,,170,1
342,AQA,Araraquara,BR,BR,SBAQ,AQA,-21.816668,-48.133330,America/Sao_Paulo,-2,N,N,7668428,,170,1
343,AQB,"Quiche Airport",GT,GT,MGQC,AQB,15.010000,-91.150000,America/Guatemala,-6,N,N,7730655,,160,1
344,AQG,Anqing,CN,CN,ZSAQ,AQG,30.582500,117.050900,Asia/Shanghai,8,N,N,7668802,,320,3
345,AQI,Qaisumah,SA,SA,OEPA,AQI,28.334408,46.121315,Asia/Riyadh,3,N,N,0,,220,2
346,AQJ,"King Hussein International",JO,JO,OJAQ,AQJ,29.610073,35.021510,Asia/Amman,3,N,N,250774,,220,2
347,AQM,Ariquemes,BR,BR,SWNI,AQM,-9.933333,-63.066666,America/Porto_Velho,-4,N,N,7730829,,170,1
348,AQP,"Rodriguez Ballon",PE,PE,SPQU,AQP,-16.344812,-71.567990,America/Lima,-5,N,N,6300817,,170,1
349,AQY,Alyeska,US,US,,AQY,60.966667,-149.116670,America/Anchorage,-9,N,N,5879267,,000,1
350,ARA,"Acadiana Regional",US,US,KARA,ARA,30.037779,-91.883890,America/Chicago,-6,N,N,4334971,,000,1
351,ARB,Municipal,US,US,KARB,ARB,42.300000,-83.750000,America/Detroit,-5,N,N,4984248,,000,1
352,ARC,"Arctic Village",US,US,PARC,ARC,68.137500,-145.524440,America/Anchorage,-9,N,N,5879636,,000,1
353,ARD,"Alor Island",ID,ID,WATM,ARD,-8.683333,124.533330,Asia/Makassar,8,N,N,7730830,,320,3
354,ARE,Arecibo,PR,PR,TJAB,ARE,18.450000,-66.675835,America/Puerto_Rico,-4,N,N,4562635,,000,1
355,ARF,Acaricuara,CO,CO,,ARF,0.533333,-70.133330,America/Bogota,-5,N,N,8299065,,000,1
356,ARG,"Walnut Ridge",US,US,KARG,ARG,36.066666,-90.950000,America/Chicago,-6,N,N,4135213,,000,1
357,ARH,Arkhangelsk,RU,RU,ULAA,ARH,64.594795,40.711903,Europe/Moscow,4,N,N,6300969,,210,2
358,ARI,Chacalluta,CL,CL,SCAR,ARI,-18.349766,-70.335556,America/Santiago,-3,N,N,6300689,,170,1
359,ARJ,Arso,ID,ID,WAJA,ARJ,-2.933333,140.783340,Asia/Jayapura,9,N,N,7730831,,320,3
360,ARK,Arusha,TZ,TZ,HTAR,ARK,-3.366667,36.683334,Africa/Dar_es_Salaam,3,N,N,6297351,,230,2
361,ARL,Arly,BF,BF,DFER,ARL,11.600000,1.483333,Africa/Ouagadougou,0,N,N,7730461,,230,2
362,ARM,Armidale,AU,AU,YARM,ARM,-30.532297,151.614930,Australia/Sydney,11,N,N,7730238,,340,3
363,ARN,Arlanda,SE,SE,ESSA,STO,59.649820,17.930365,Europe/Stockholm,1,N,N,2725346,,210,2
364,ARO,Arboletas,CO,CO,,ARO,8.850000,-76.433334,America/Bogota,-5,N,N,8298702,,000,1
365,ARP,Aragip,PG,PG,,ARP,-9.800000,149.500000,Pacific/Port_Moresby,10,N,N,8261057,,340,3
366,ARQ,Arauquita,CO,CO,,ARQ,7.033056,-71.431660,America/Bogota,-5,N,N,6195162,,000,1
367,ARR,"Alto Rio Senguerr",AR,AR,SAVR,ARR,-45.033333,-70.833336,America/Argentina/Catamarca,-3,N,N,7730773,,170,1
368,ARS,Aragarcas,BR,BR,,ARS,-15.900000,-52.233334,America/Sao_Paulo,-2,N,N,8299188,,170,1
369,ART,Watertown,US,US,KART,ART,43.990833,-76.021385,America/New_York,-5,N,N,5143399,NY,000,1
370,ARU,Aracatuba,BR,BR,SBAU,ARU,-21.143612,-50.426110,America/Sao_Paulo,-2,N,N,7668429,,170,1
371,ARV,"Noble F. Lee",US,US,KARV,ARV,45.924168,-89.732220,America/Chicago,-6,N,N,5263156,,000,1
372,ARW,Arad,RO,RO,LRAR,ARW,46.183334,21.266666,Europe/Bucharest,2,N,N,6299698,,210,2
373,ARY,Ararat,AU,AU,YARA,ARY,-37.316666,143.000000,Australia/Melbourne,11,N,N,7668680,,340,3
374,ARZ,N'zeto,AO,AO,FNZE,ARZ,-7.500000,13.500000,Africa/Luanda,1,N,N,7730521,,230,2
375,ASA,"Assab International",ER,ER,HHSB,ASA,13.070000,42.638332,Africa/Asmara,3,N,N,6453437,,230,2
376,ASB,Ashgabat,TM,TM,UTAA,ASB,37.984184,58.366978,Asia/Ashgabat,5,N,N,6301005,,320,3
377,ASC,Ascension,BO,BO,SLAS,ASC,-15.916667,-63.150000,America/La_Paz,-4,N,N,6300765,,170,1
378,ASD,"Andros Town",BS,BS,MYAF,ASD,24.697779,-77.796110,America/Nassau,-5,N,N,3572906,,140,1
379,ASE,Aspen,US,US,KASE,ASE,39.219685,-106.864685,America/Denver,-7,N,N,5412276,CO,000,1
380,ASF,Astrakhan,RU,RU,URWA,ASF,46.287700,47.999977,Europe/Volgograd,4,N,N,6300996,,210,2
381,ASG,Ashburton,NZ,NZ,NZAS,ASG,-43.900000,171.783340,Pacific/Auckland,13,N,N,7730727,,340,3
382,ASH,"Boire Field",US,US,KASH,ASH,42.778890,-71.509445,America/New_York,-5,N,N,5090046,,000,1
383,ASI,"Wideawake Field",SH,SH,,ASI,-7.966667,-14.400000,Atlantic/St_Helena,0,N,N,6296983,,170,1
384,ASJ,Amami,JP,JP,RJKA,ASJ,28.431522,129.707930,Asia/Tokyo,9,N,N,6300360,,310,3
385,ASK,Yamoussoukro,CI,CI,DIYO,ASK,6.816667,-5.283333,Africa/Abidjan,0,N,N,6296445,,230,2
386,ASL,"Harrison County",US,US,KASL,ASL,32.550000,-94.383330,America/Chicago,-6,N,N,4709272,,000,1
387,ASM,"Yohannes IV",ER,ER,HHAS,ASM,15.291111,38.910280,Africa/Asmara,3,N,N,6297302,,230,2
388,ASN,Talladega,US,US,KASN,ASN,33.433334,-86.100000,America/Chicago,-6,N,N,4092812,AL,000,1
389,ASO,Asosa,ET,ET,HASO,ASO,10.047222,34.536667,Africa/Addis_Ababa,3,N,N,6297281,,230,2
390,ASP,"Alice Springs",AU,AU,YBAS,ASP,-23.801390,133.903380,Australia/Darwin,10,N,N,6301291,,340,3
391,ASQ,Austin,US,US,KTMT,ASQ,39.466667,-117.166664,America/Los_Angeles,-8,N,N,5499538,,000,1
392,ASR,"Erkilet International Airport",TR,TR,LTAU,ASR,38.774200,35.490707,Europe/Istanbul,2,N,N,6299738,,210,2
393,AST,Astoria,US,US,KAST,AST,46.159720,-123.880000,America/Los_Angeles,-8,N,N,5719409,OR,000,1
394,ASU,"Silvio Pettirossi",PY,PY,SGAS,ASU,-25.241795,-57.513794,America/Asuncion,-3,N,N,6300727,,170,1
395,ASV,Amboseli,KE,KE,HKAM,ASV,-2.633333,37.250000,Africa/Nairobi,3,N,N,7730093,,230,2
396,ASW,Aswan,EG,EG,HESN,ASW,23.968021,32.824818,Africa/Cairo,2,N,N,6297299,,220,2
397,ASX,Ashland,US,US,KASX,ASX,46.550000,-90.916664,America/Chicago,-6,N,N,5257948,,000,1
398,ASY,Ashley,US,US,,ASY,46.033333,-99.366670,America/Chicago,-6,N,N,0,,000,1
399,ASZ,Asirim,PG,PG,,ASZ,-5.866667,150.366670,Pacific/Port_Moresby,10,N,N,8298828,,340,3
400,ATA,Anta,PE,PE,SPHZ,ATA,-9.347222,-77.600000,America/Lima,-5,N,N,6300805,,170,1
401,ATB,Atbara,SD,SD,HSAT,ATB,17.716667,34.016666,Africa/Khartoum,3,N,N,6297335,,220,2
402,ATC,"Arthur's Town",BS,BS,MYCA,ATC,24.628610,-75.671390,America/Nassau,-5,N,N,3572898,,140,1
403,ATD,Atoifi,SB,SB,AGAT,ATD,-8.866667,161.033340,Pacific/Guadalcanal,11,N,N,7730402,,340,3
404,ATE,Antlers,US,US,,ATE,34.233334,-95.616670,America/Chicago,-6,N,N,4529419,,000,1
405,ATF,Chachoan,EC,EC,SEAM,ATF,-1.083333,-78.700000,America/Guayaquil,-5,N,N,6300709,,170,1
406,ATG,Attock,PK,PK,,ATG,33.900000,72.250000,Asia/Karachi,5,N,N,0,,330,3
407,ATH,"Athens International Airport ""Eleftherios Venizelos""",GR,GR,LGAV,ATH,37.936350,23.946486,Europe/Athens,2,N,N,6299484,,210,2
408,ATI,Artigas,UY,UY,SUAG,ATI,-30.400000,-56.508330,America/Montevideo,-2,N,N,6300827,,170,1
409,ATJ,Antsirabe,MG,MG,FMME,ATJ,-19.850000,47.016666,Indian/Antananarivo,3,N,N,1069186,,230,2
410,ATK,Atqasuk,US,US,PATQ,ATK,70.500000,-157.333330,America/Anchorage,-9,N,N,5879756,AK,008,1
411,ATL,"Hartsfield-jackson Atlanta International",US,US,KATL,ATL,33.640068,-84.444030,America/New_York,-5,N,N,4180439,GA,000,1
412,ATM,Altamira,BR,BR,SBHT,ATM,-3.200000,-52.216667,America/Santarem,-3,N,N,6300631,,170,1
413,ATN,Namatanai,PG,PG,,ATN,-3.666667,152.466660,Pacific/Port_Moresby,10,N,N,8298755,,340,3
414,ATO,"Ohio University",US,US,,ATO,39.333332,-82.100000,America/New_York,-5,N,N,0,,000,1
415,ATP,Airstrip,PG,PG,AYAI,ATP,-3.166667,142.283340,Pacific/Port_Moresby,10,N,N,7730832,,340,3
416,ATQ,"Raja Sansi International Airport",IN,IN,VIAR,ATQ,31.706741,74.807300,Asia/Kolkata,6,N,N,6301092,,330,3
417,ATR,Mouakchott,MR,MR,GQPA,ATR,20.499443,-13.046389,Africa/Nouakchott,0,N,N,6297242,,230,2
418,ATS,Artesia,US,US,KATS,ATS,32.848330,-104.466940,America/Denver,-7,N,N,5455805,,000,1
419,ATT,Atmautluak,US,US,KATT,ATT,60.866943,-162.267500,America/Nome,-9,N,N,5879750,,000,1
420,ATV,Ati,TD,TD,,ATV,13.242222,18.307500,Africa/Ndjamena,1,N,N,2436400,,230,2
421,ATW,"Outagamie County",US,US,KATW,ATW,44.260110,-88.509940,America/Chicago,-6,N,N,5266045,WI,000,1
422,ATX,Atbasar,KZ,KZ,,ATX,51.883330,68.400000,Asia/Almaty,6,N,N,7730833,,320,3
423,ATY,Watertown,US,US,KATY,ATY,44.908890,-97.154170,America/Chicago,-6,N,N,5232744,SD,000,1
424,ATZ,Assiut,EG,EG,HEAT,ATZ,27.033333,31.000000,Africa/Cairo,2,N,N,6297290,,220,2
425,AUA,"Reina Beatrix",AW,AW,TNCA,AUA,12.502222,-70.013885,America/Aruba,-4,N,N,3577126,,140,1
426,AUB,Itauba,BR,BR,,AUB,-5.766667,-63.350000,America/Cuiaba,-3,N,N,0,,170,1
427,AUC,Arauca,CO,CO,SKUC,AUC,7.071667,-70.742500,America/Bogota,-5,N,N,6195164,,000,1
428,AUD,"Augustus Downs",AU,AU,YAGD,AUD,-18.506945,139.881670,Australia/Brisbane,10,N,N,7730834,,340,3
429,AUE,"Abu Rudeis",EG,EG,,AUE,28.900000,33.183334,Africa/Cairo,2,N,N,0,,220,2
430,AUF,"Auxerre Branches",FR,FR,LFLA,AUF,47.850000,3.500000,Europe/Paris,1,N,N,6299397,,210,2
431,AUG,Augusta,US,US,KAUG,AUG,44.318054,-69.796670,America/New_York,-5,N,N,4956999,ME,000,1
432,AUH,"Abu Dhabi International",AE,AE,OMAA,AUH,24.426912,54.645973,Asia/Dubai,4,N,N,6300092,,220,2
433,AUI,"Aua Island",PG,PG,,AUI,-1.458333,143.075000,Pacific/Port_Moresby,10,N,N,8260725,,340,3
434,AUJ,Ambunti,PG,PG,,AUJ,-4.250000,142.850000,Pacific/Port_Moresby,10,N,N,2100933,,340,3
435,AUK,Alakanuk,US,US,PAUK,AUK,62.689167,-164.610840,America/Nome,-9,N,N,5879057,AK,008,1
436,AUL,"Aur Island",MH,MH,,AUL,8.133333,171.166670,Pacific/Majuro,12,N,N,0,,370,3
437,AUM,Austin,US,US,KAUM,AUM,43.666668,-92.983330,America/Chicago,-6,N,N,5016894,,000,1
438,AUN,Auburn,US,US,KAUN,AUN,38.900000,-121.066666,America/Los_Angeles,-8,N,N,5325232,,000,1
439,AUO,Auburn-Opelika,US,US,KAUO,AUO,32.633330,-85.500000,America/Chicago,-6,N,N,4830825,,000,1
440,AUP,Agaun,PG,PG,,AUP,-9.983333,149.583330,Pacific/Port_Moresby,10,N,N,8260975,,340,3
441,AUQ,Atuona,PF,PF,NTMN,AUQ,-9.769324,-139.009780,Pacific/Marquesas,-10,N,N,4020109,,340,3
442,AUR,Aurillac,FR,FR,LFLW,AUR,44.897500,2.418056,Europe/Paris,1,N,N,6299407,,210,2
443,AUS,"Austin-bergstrom International",US,US,KAUS,AUS,30.202545,-97.667060,America/Chicago,-6,N,N,4673601,TX,000,1
444,AUT,Atauro,ID,ID,WPAT,AUT,-8.216667,125.583336,Asia/Makassar,8,N,N,7730835,,320,3
445,AUU,"Aurukun Mission",AU,AU,YAUR,AUU,-13.166667,142.250000,Australia/Brisbane,10,N,N,7668683,,340,3
446,AUV,Aumo,PG,PG,,AUV,-5.716667,148.433330,Pacific/Port_Moresby,10,N,N,8260726,,340,3
447,AUW,Municipal,US,US,,AUW,44.923332,-89.623055,America/Chicago,-6,N,N,5278133,,000,1
448,AUX,Araguaina,BR,BR,SWGN,AUX,-7.200000,-48.200000,America/Araguaina,-2,N,N,7668482,,170,1
449,AUY,Aneityum,VU,VU,NVVA,AUY,-20.333332,169.666670,Pacific/Efate,11,N,N,7668377,,340,3
450,AUZ,"Municipal Airport",US,US,KARR,AUZ,41.750000,-88.316666,America/Chicago,-6,N,N,4883831,,000,1
451,AVA,"An Shun/Huang Guo Shu",CN,CN,ZUAS,AVA,26.257221,105.872780,Asia/Shanghai,8,N,N,8260698,,320,3
452,AVB,Aviano,IT,IT,LIPA,AVB,46.033333,12.600000,Europe/Rome,1,N,N,3217059,,210,2
453,AVG,Auvergne,AU,AU,YAUV,AVG,-15.650000,130.016660,Australia/Darwin,10,N,N,7730836,,340,3
454,AVI,"Maximo Gomez",CU,CU,MUCA,AVI,22.025000,-78.791390,America/Havana,-5,N,N,6299916,,140,1
455,AVK,Arvaikheer,MN,MN,ZMAH,AVK,46.266666,102.783330,Asia/Ulaanbaatar,8,N,N,7730290,,320,3
456,AVL,"Asheville Regional Airport",US,US,KAVL,AVL,35.435080,-82.537315,America/New_York,-5,N,N,4453066,NC,000,1
457,AVN,Avignon-Caumont,FR,FR,LFMV,AVN,43.900000,4.900000,Europe/Paris,1,N,N,6694625,,210,2
458,AVO,Municipal,US,US,KAVO,AVO,27.600000,-81.516670,America/New_York,-5,N,N,4146444,,000,1
459,AVP,"Wilkes-Barre/Scranton International Airport",US,US,KAVP,AVP,41.336697,-75.730644,America/New_York,-5,N,N,5219496,PA,000,1
460,AVU,"Avu Avu",SB,SB,,AVU,-9.833333,160.383330,Pacific/Guadalcanal,11,N,N,2109675,,340,3
461,AVV,Avalon,AU,AU,YMAV,MEL,-38.026370,144.473080,Australia/Melbourne,11,N,N,6301308,,340,3
462,AVW,"Avra Valley",US,US,KAVQ,TUS,32.416668,-111.216670,America/Phoenix,-7,N,N,5552752,,000,1
463,AVX,"Avalon Bay",US,US,KAVX,AVX,33.341667,-118.315280,America/Los_Angeles,-8,N,N,5334969,,000,1
464,AWA,Awassa,ET,ET,HALA,AWA,7.061111,38.487500,Africa/Addis_Ababa,3,N,N,6297275,,230,2
465,AWB,Awaba,PG,PG,,AWB,-8.016667,142.750000,Pacific/Port_Moresby,10,N,N,7730837,,340,3
466,AWD,Aniwa,VU,VU,NVVB,AWD,-19.250000,169.500000,Pacific/Efate,11,N,N,7668378,,340,3
467,AWE,Alowe,GA,GA,,AWE,-0.750000,9.450000,Africa/Libreville,1,N,N,8298777,,230,2
468,AWK,"Wake Island",UM,UM,PWAK,AWK,19.283333,166.633330,Pacific/Wake,12,N,N,4041686,,370,3
469,AWM,Municipal,US,US,KAWM,AWM,35.133330,-90.183334,America/Chicago,-6,N,N,4135867,,000,1
470,AWN,"Alton Downs",AU,AU,,AWN,-26.250000,138.666670,Australia/Adelaide,11,N,N,8299001,,340,3
471,AWP,"Austral Downs",AU,AU,YAUS,AWP,-20.500000,137.750000,Australia/Darwin,10,N,N,7730838,,340,3
472,AWZ,Ahwaz,IR,IR,OIAW,AWZ,31.342920,48.746680,Asia/Tehran,4,N,N,6300040,,220,2
473,AXA,Wallblake,AI,AI,TQPF,AXA,18.216667,-63.066666,America/Anguilla,-4,N,N,3573371,,140,1
474,AXB,"Alexandria Bay",US,US,,AXB,44.252500,-75.901390,America/New_York,-5,N,N,5106950,,000,1
475,AXC,Aramac,AU,AU,YAMC,AXC,-22.958055,145.242500,Australia/Brisbane,10,N,N,7730839,,340,3
476,AXD,Dimokritos,GR,GR,LGAL,AXD,40.856785,25.944893,Europe/Athens,2,N,N,6299483,,210,2
477,AXE,Xanxere,BR,BR,,AXE,-26.883333,-52.383330,America/Sao_Paulo,-2,N,N,8298996,,170,1
478,AXG,Algona,US,US,KAXA,AXG,43.066666,-94.233330,America/Chicago,-6,N,N,4846611,,000,1
479,AXK,Ataq,YE,YE,ODAT,AXK,13.866667,46.300000,Asia/Aden,3,N,N,6300136,,220,2
480,AXL,Alexandria,AU,AU,YALX,AXL,-19.083332,136.666670,Australia/Darwin,10,N,N,7730840,,340,3
481,AXM,"El Eden",CO,CO,SKAR,AXM,4.452869,-75.768040,America/Bogota,-5,N,N,6300733,,000,1
482,AXN,Alexandria,US,US,KAXN,AXN,45.867220,-95.394165,America/Chicago,-6,N,N,5020871,MN,000,1
483,AXP,"Springpoint Airport",BS,BS,MYAP,AXP,22.450000,-73.966670,America/Nassau,-5,N,N,7668362,,140,1
484,AXR,Arutua,PF,PF,NTGU,AXR,-15.250000,-146.750000,Pacific/Tahiti,-10,N,N,7730127,,340,3
485,AXS,Municipal,US,US,KAXS,LTS,34.696667,-99.338060,America/Chicago,-6,N,N,4529300,,000,1
486,AXT,Akita,JP,JP,RJSK,AXT,39.611770,140.220150,Asia/Tokyo,9,N,N,6300394,,310,3
487,AXU,Axum,ET,ET,HAAX,AXU,14.120833,38.716667,Africa/Addis_Ababa,3,N,N,6297261,,230,2
488,AXV,"Neil Armstrong",US,US,KAXV,AXV,40.566666,-84.200000,America/New_York,-5,N,N,5175670,,000,1
489,AXX,"Angel Fire",US,US,,AXX,36.416668,-105.283330,America/Denver,-7,N,N,5455214,,000,1
490,AYA,Ayapel,CO,CO,,AYA,8.316667,-75.150000,America/Bogota,-5,N,N,3689381,,000,1
491,AYC,Ayacucho,CO,CO,,AYC,8.600000,-73.616670,America/Bogota,-5,N,N,8299174,,000,1
492,AYD,"Alroy Downs",AU,AU,,AYD,-19.300000,135.950000,Australia/Darwin,10,N,N,7730841,,340,3
493,AYG,Yaguara,CO,CO,SKYA,AYG,1.533333,-73.933334,America/Bogota,-5,N,N,7730842,,000,1
494,AYI,Yari,CO,CO,,AYI,-0.333333,-72.333336,America/Bogota,-5,N,N,3665757,,000,1
495,AYK,Arkalyk,KZ,KZ,UAUR,AYK,50.316666,66.966670,Asia/Almaty,6,N,N,7668495,,320,3
496,AYL,"Anthony Lagoon",AU,AU,,AYL,-18.033333,135.533340,Australia/Darwin,10,N,N,7730843,,340,3
497,AYN,Anyang,CN,CN,ZHAY,AYN,36.100000,114.350000,Asia/Shanghai,8,N,N,7730844,,320,3
498,AYO,Ayolas,PY,PY,,AYO,-27.366667,-56.850000,America/Asuncion,-3,N,N,3439378,,170,1
499,AYP,Yanamilla,PE,PE,SPHO,AYP,-13.197222,-74.247220,America/Lima,-5,N,N,6300803,,170,1
500,AYQ,Connellan,AU,AU,YAYE,AYQ,-25.190878,130.976580,Australia/Darwin,10,N,N,6301288,,340,3
501,AYR,Ayr,AU,AU,YAYR,AYR,-19.596666,147.324450,Australia/Brisbane,10,N,N,7730845,,340,3
502,AYS,"Ware County",US,US,KAYS,AYS,31.248611,-82.396670,America/New_York,-5,N,N,4229774,,000,1
503,AYT,Antalya,TR,TR,LTAI,AYT,36.899280,30.801350,Europe/Istanbul,2,N,N,6299729,,210,2
504,AYU,Aiyura,PG,PG,AYAY,AYU,-6.333333,145.900000,Pacific/Port_Moresby,10,N,N,8298987,,340,3
505,AYW,Ayawasi,ID,ID,,AYW,-1.200000,132.500000,Asia/Jayapura,9,N,N,7730846,,320,3
506,AYY,"Arugam Bay SPB",LK,LK,,AYY,6.855000,81.831100,Asia/Colombo,6,N,N,8298885,,330,3
507,AZA,"Williams Gateway",US,US,KIWA,PHX,33.307777,-111.655556,America/Phoenix,-7,N,N,5321107,,000,1
508,AZB,"Amazon Bay",PG,PG,,AZB,-10.150000,148.816670,Pacific/Port_Moresby,10,N,N,8260720,,340,3
509,AZD,Yazd,IR,IR,OIYY,AZD,31.903603,54.283264,Asia/Tehran,4,N,N,6300082,,220,2
510,AZG,Apatzingan,MX,MX,,AZG,19.068056,-102.352776,America/Mexico_City,-6,N,N,0,,000,1
511,AZI,Bateen,AE,AE,OMAD,AUH,24.419167,54.451668,Asia/Dubai,4,N,N,6300094,,220,2
512,AZL,"Fazenda Tucunare",BR,BR,,AZL,-13.470000,-58.850000,America/Cuiaba,-3,N,N,8260711,,170,1
513,AZN,Andizhan,UZ,UZ,UTKA,AZN,40.733334,72.300000,Asia/Tashkent,5,N,N,7668544,,320,3
514,AZO,"Kalamazoo/Battle Creek International",US,US,KAZO,AZO,42.239964,-85.556560,America/Detroit,-5,N,N,4997799,MI,000,1
515,AZP,Atizapan,MX,MX,,MEX,19.416668,-99.100000,America/Mexico_City,-6,N,N,0,,000,1
516,AZR,Adrar,DZ,DZ,DAUA,AZR,27.883333,-0.283333,Africa/Algiers,1,N,N,6296386,,210,2
517,AZS,"Samaná El Catey International",DO,DO,MDZY,AZS,19.270555,-69.736946,America/Santo_Domingo,-4,N,N,7175127,,140,1
518,AZT,Zapatoca,CO,CO,,AZT,6.866667,-73.250000,America/Bogota,-5,N,N,3665587,,000,1
519,AZZ,Ambriz,AO,AO,FNAM,AZZ,-7.883333,13.150000,Africa/Luanda,1,N,N,7730516,,230,2
520,BAA,Bialla,PG,PG,,BAA,-5.316667,151.033340,Pacific/Port_Moresby,10,N,N,8298852,,340,3
521,BAB,"Beale AFB",US,US,KBAB,MYV,39.150000,-121.583336,America/Los_Angeles,-8,N,N,5355145,,000,1
522,BAC,"Barranca De Upia",CO,CO,,BAC,4.583333,-72.966670,America/Bogota,-5,N,N,8299250,,000,1
523,BAD,"Barksdale AFB",US,US,,SHV,32.500000,-93.666664,America/Chicago,-6,N,N,0,,000,1
524,BAE,Barcelonnette,FR,FR,LFMR,BAE,44.383330,6.666667,Europe/Paris,1,N,N,6694778,,210,2
525,BAF,Barnes,US,US,KBAF,BAF,42.133330,-72.750000,America/New_York,-5,N,N,4929766,MA,000,1
526,BAG,Loakan,PH,PH,RPUB,BAG,16.376667,120.617775,Asia/Manila,8,N,N,6300480,,320,3
527,BAH,"Bahrain International",BH,BH,OBBI,BAH,26.269180,50.626050,Asia/Bahrain,3,N,N,290288,,220,2
528,BAI,"Buenos Aires",CR,CR,MRBA,BAI,9.166667,-83.333336,America/Costa_Rica,-6,N,N,7730109,,160,1
529,BAJ,Bali,PG,PG,,BAJ,-4.833333,149.133330,Pacific/Port_Moresby,10,N,N,8260727,,340,3
530,BAL,Batman,TR,TR,LTCJ,BAL,37.916668,41.083332,Europe/Istanbul,2,N,N,6299768,,210,2
531,BAM,"Lander County",US,US,BAMB,BAM,40.633330,-116.933334,America/Los_Angeles,-8,N,N,5705566,,000,1
532,BAN,Basongo,CD,CD,FZVR,BAN,-4.313333,20.428057,Africa/Lubumbashi,2,N,N,7730574,,230,2
533,BAO,Udorn,TH,TH,,BAO,17.385000,102.792780,Asia/Bangkok,7,N,N,0,,320,3
534,BAQ,"E Cortissoz",CO,CO,SKBQ,BAQ,10.886398,-74.776180,America/Bogota,-5,N,N,3811824,,000,1
535,BAR,"Baker AAF",US,US,,BAR,55.333332,-133.600000,America/Sitka,-9,N,N,0,,000,1
536,BAS,Balalae,SB,SB,AGGE,BAS,-6.983333,155.883330,Pacific/Guadalcanal,11,N,N,0,,340,3
537,BAT,"Airport Chafei Amsei",BR,BR,SNBA,BAT,-20.550000,-48.550000,America/Sao_Paulo,-2,N,N,7730152,,170,1
538,BAU,Bauru,IT,IT,SBBU,BRI,-22.343056,-49.052500,Europe/Rome,1,N,N,6300606,,210,2
539,BAV,Baotou,CN,CN,ZBOW,BAV,40.563328,110.000900,Asia/Shanghai,8,N,N,7668790,,320,3
540,BAW,Biawonque,GA,GA,,BAW,-0.666667,146.350000,Africa/Libreville,1,N,N,8298779,,230,2
541,BAX,Barnaul,RU,XU,UNBB,BAX,53.361088,83.547646,Asia/Omsk,7,N,N,6300983,,360,3
542,BAY,"Baia Mare",RO,RO,LRBM,BAY,47.650000,23.466667,Europe/Bucharest,2,N,N,6299700,,210,2
543,BAZ,Barbelos,BR,BR,SWBC,BAZ,-0.966944,-62.933613,America/Manaus,-4,N,N,0,,170,1
544,BBA,"Teniente Vidal",CL,CL,SCBA,BBA,-45.916668,-71.695000,America/Santiago,-3,N,N,6300690,,170,1
545,BBB,Municipal,US,US,KBBB,BBB,45.316666,-95.600000,America/Chicago,-6,N,N,5017898,,000,1
546,BBC,"Bay City",US,US,KBYY,BBC,28.983334,-95.966670,America/Chicago,-6,N,N,4672665,,000,1
547,BBD,"Curtis Field",US,US,KBBD,BBD,31.133333,-99.333336,America/Chicago,-6,N,N,4684668,,000,1
548,BBF,Burlington,US,US,,BBF,42.500000,-71.183334,America/New_York,-5,N,N,0,,000,1
549,BBG,Butaritari,KI,KI,NGTU,BBG,3.166667,172.750000,Pacific/Tarawa,12,N,N,6299956,,340,3
550,BBH,Barth,DE,DE,EDBH,BBH,54.339720,12.711667,Europe/Berlin,1,N,N,3209284,,210,2
551,BBI,Bhubaneswar,IN,IN,VEBS,BBI,20.252853,85.817380,Asia/Kolkata,6,N,N,6301068,,330,3
552,BBJ,"Bitburg Air Base",DE,DE,EDAB,BBJ,49.966667,6.516667,Europe/Berlin,1,N,N,3208843,,210,2
553,BBK,Kasane,BW,BW,FBKE,BBK,-17.816668,25.150000,Africa/Gaborone,2,N,N,6296946,,230,2
554,BBM,Battambang,KH,KH,VDBG,BBM,13.116667,103.200000,Asia/Phnom_Penh,7,N,N,6453421,,320,3
555,BBN,Bario,MY,MY,WBGZ,BBN,3.683333,115.466670,Asia/Kuching,8,N,N,7730234,,320,3
556,BBO,Berbera,SO,SO,HCMI,BBO,10.419444,45.006390,Africa/Mogadishu,3,N,N,6297285,,230,2
557,BBP,Bembridge,GB,GB,EGHJ,BBP,50.683334,-1.083333,Europe/London,0,N,N,7668206,,210,2
558,BBQ,Barbuda,AG,AG,,BBQ,17.555555,-61.765000,America/Antigua,-4,N,N,0,,140,1
559,BBR,Baillif,GP,GP,,BBR,16.016390,-61.739445,America/Guadeloupe,-4,N,N,0,,140,1
560,BBS,Blackbushe,GB,GB,EGLK,BBS,51.333332,-0.850000,Europe/London,0,N,N,7668210,,210,2
561,BBT,Berberati,CF,CF,FEFT,BBT,4.219167,15.788056,Africa/Bangui,1,N,N,6296980,,230,2
562,BBU,Baneasa,RO,RO,LRBS,BUH,44.495934,26.080996,Europe/Bucharest,2,N,N,6299701,,210,2
563,BBV,Hkg,CI,CI,DIGN,BBV,4.666667,-6.950000,Africa/Abidjan,0,N,N,8298909,,230,2
564,BBW,"Broken Bow",US,US,KBBW,BBW,41.400000,-99.633330,America/Chicago,-6,N,N,5064648,,000,1
565,BBX,"Wings Field",US,US,KLOM,BBX,40.136665,-75.267500,America/New_York,-5,N,N,5219791,,000,1
566,BBY,Bambari,CF,CF,FEFM,BBY,5.845833,20.649721,Africa/Bangui,1,N,N,6296975,,230,2
567,BBZ,Zambezi,ZM,ZM,FLZB,BBZ,-13.537222,23.110000,Africa/Lusaka,2,N,N,6297030,,230,2
568,BCA,Baracoa,CU,CU,MUBA,BCA,20.350000,-74.500000,America/Havana,-5,N,N,6299914,,140,1
569,BCB,"Virginia Tech",US,US,KBCB,BCB,37.233334,-80.416664,America/New_York,-5,N,N,4791348,,000,1
570,BCC,"Bear Creek",US,US,,BCC,45.183334,-109.100000,America/Anchorage,-9,N,N,5880392,,000,1
571,BCD,Bacolod,PH,PH,RPVB,BCD,10.644815,122.933590,Asia/Manila,8,N,N,8298629,,320,3
572,BCE,Bryce,US,US,KBCE,BCE,37.701110,-112.135280,America/Denver,-7,N,N,5535946,UT,000,1
573,BCF,Bouca,CF,CF,FEGU,BCF,6.750000,18.416668,Africa/Bangui,1,N,N,7668239,,230,2
574,BCG,Bemichi,GY,GY,,BCG,6.550000,-58.550000,America/Guyana,-4,N,N,7730848,,140,1
575,BCH,"Cakung International",TL,TL,WPEC,BCH,-8.491667,126.399720,Asia/Dili,9,N,N,6301260,,,
576,BCI,Barcaldine,AU,AU,YBAR,BCI,-23.559168,145.301940,Australia/Brisbane,10,N,N,7730239,,340,3
577,BCK,Bolwarra,AU,AU,,BCK,-17.400000,144.166670,Australia/Brisbane,10,N,N,7730849,,340,3
578,BCL,"Barra Colorado",CR,CR,MRBC,BCL,10.833333,-82.966670,America/Costa_Rica,-6,N,N,7668354,,160,1
579,BCM,Bacau,RO,RO,LRBC,BCM,46.598610,26.881945,Europe/Bucharest,2,N,N,6299699,,210,2
580,BCN,"El Prat De Llobregat",ES,ES,LEBL,BCN,41.303030,2.075930,Europe/Madrid,1,N,N,3128760,,210,2
581,BCO,Jinka,ET,ET,HABC,BCO,5.783333,36.550000,Africa/Addis_Ababa,3,N,N,8298865,,230,2
582,BCP,Bambu,PG,PG,,BCP,-5.850000,146.483340,Pacific/Port_Moresby,10,N,N,2099957,,340,3
583,BCQ,Brack,LY,LY,,BCQ,27.683332,14.216667,Africa/Tripoli,1,N,N,7730317,,230,2
584,BCR,"Boca Do Acre",BR,BR,SWNK,BCR,-8.750000,-67.383330,America/Manaus,-4,N,N,7730850,,170,1
585,BCS,"Southern Seaplane",US,US,,BCS,29.966667,-90.000000,America/Chicago,-6,N,N,4316329,,000,1
586,BCT,Public,US,US,KBCT,BCT,26.350000,-80.083336,America/New_York,-5,N,N,4148413,,000,1
587,BCU,Bauchi,NG,NG,,BCU,10.366667,9.800000,Africa/Lagos,1,N,N,7730851,,230,2
588,BCV,Belmopan,BZ,BZ,,BCV,17.266666,-88.783330,America/Belize,-6,N,N,3582672,,160,1
589,BCW,"Benguera Island",MZ,MZ,,BCW,-21.884722,35.425000,Africa/Maputo,2,N,N,7730315,,230,2
590,BCX,Beloreck,RU,RU,UWUB,BCX,53.933334,58.333332,Asia/Yekaterinburg,6,N,N,7730852,,210,2
591,BCY,Bulchi,ET,ET,,BCY,6.216667,36.666668,Africa/Addis_Ababa,3,N,N,8260966,,230,2
592,BCZ,"Bickerton Island",AU,AU,,BCZ,-13.783333,137.800000,Australia/Darwin,10,N,N,0,,340,3
593,BDA,"L. F. Wade International",BM,BM,TXKF,BDA,32.359940,-64.701150,Atlantic/Bermuda,-4,N,N,3573197,,140,1
594,BDB,Bundaberg,AU,AU,YBUD,BDB,-24.898708,152.321870,Australia/Brisbane,10,N,N,7668694,,340,3
595,BDC,"Barra Do Corda",BR,BR,SNBC,BDC,-5.466667,-45.266666,America/Fortaleza,-3,N,N,7730853,,170,1
596,BDD,"Badu Island",AU,AU,YBAU,BDD,-10.148655,142.171660,Australia/Brisbane,10,N,N,7730854,,340,3
597,BDE,Baudette,US,US,KBDE,BDE,48.722780,-94.606940,America/Chicago,-6,N,N,5017389,MN,000,1
598,BDF,Rinkenberger,US,US,,BDF,41.183334,-89.650000,America/Chicago,-6,N,N,0,,000,1
599,BDG,Blanding,US,US,KBDG,BDG,37.616670,-109.483330,America/Denver,-7,N,N,5535491,,000,1
600,BDH,"Bandar Lengeh",IR,IR,OIBL,BDH,26.529486,54.829147,Asia/Tehran,4,N,N,6300044,,220,2
601,BDI,"Bird Island",SC,SC,FSSB,BDI,-3.716667,55.216667,Indian/Mahe,4,N,N,6354923,,230,2
602,BDJ,"Sjamsudin Noor",ID,ID,WRBB,BDJ,-3.438040,114.754250,Asia/Makassar,8,N,N,6301262,,320,3
603,BDK,Bondoukou,CI,CI,DIBU,BDK,8.033333,-2.800000,Africa/Abidjan,0,N,N,6296435,,230,2
604,BDL,"Bradley International",US,US,KBDL,BDL,41.929530,-72.684700,America/New_York,-5,N,N,5282636,CT,000,1
605,BDM,Bandirma,TR,TR,LTBG,BDM,40.318333,27.977222,Europe/Istanbul,2,N,N,6299747,,210,2
606,BDN,Talhar,PK,PK,OPTH,BDN,24.633333,68.900000,Asia/Karachi,5,N,N,7730755,,330,3
607,BDO,"Husein Sastranegara",ID,ID,WIIB,BDO,-6.904648,107.581780,Asia/Jakarta,7,N,N,6301223,,320,3
608,BDP,Bhadrapur,NP,NP,VNCG,BDP,26.533333,88.083336,Asia/Kathmandu,6,N,N,7668616,,330,3
609,BDQ,Vadodara,IN,IN,VABO,BDQ,22.329077,73.215700,Asia/Kolkata,6,N,N,7668569,,330,3
610,BDR,"Igor I. Sikorsky Memorial",US,US,KBDR,BDR,41.164165,-73.124440,America/New_York,-5,N,N,5282804,CT,000,1
611,BDS,"Papola Casale",IT,IT,LIBR,BDS,40.657993,17.939053,Europe/Rome,1,N,N,6299542,,210,2
612,BDT,Gbadolite,CD,CD,FZFD,BDT,4.083333,22.450000,Africa/Kinshasa,1,N,N,7668268,,230,2
613,BDU,Bardufoss,NO,NO,ENDU,BDU,69.056114,18.540000,Europe/Oslo,1,N,N,6355182,,210,2
614,BDV,Moba,CD,CD,FZRB,BDV,-7.000000,29.800000,Africa/Lubumbashi,2,N,N,7730568,,230,2
615,BDW,"Bedford Downs",AU,AU,,BDW,-17.300000,127.466670,Australia/Perth,8,N,N,8261025,,340,3
616,BDX,Broadus,US,US,,BDX,45.466667,-105.366670,America/Denver,-7,N,N,5642048,,000,1
617,BDY,State,US,US,,BDY,43.116670,-124.416664,America/Los_Angeles,-8,N,N,0,,000,1
618,BDZ,Baindoung,PG,PG,,BDZ,-6.333333,146.950000,Pacific/Port_Moresby,10,N,N,8298936,,340,3
619,BEB,Benbecula,GB,GB,EGPL,BEB,57.473415,-7.376028,Europe/London,0,N,N,6296630,,210,2
620,BEC,Beech,US,US,KBEC,ICT,37.683334,-97.333336,America/Chicago,-6,N,N,4268051,,000,1
621,BED,"Hanscom Field",US,US,KBED,BED,42.470833,-71.290000,America/New_York,-5,N,N,4941730,MA,000,1
622,BEE,"Beagle Bay",AU,AU,,BEE,-16.966667,122.666664,Australia/Perth,8,N,N,8299011,,340,3
623,BEF,Bluefields,NI,NI,MNBL,BEF,11.996944,-83.768610,America/Managua,-6,N,N,6299887,,160,1
624,BEG,"Belgrade Nikola Tesla",RS,RS,LYBE,BEG,44.819443,20.306944,Europe/Belgrade,1,N,N,6299779,,210,2
625,BEH,"Ross Field",US,US,,BEH,42.127777,-86.428330,America/Detroit,-5,N,N,5007668,MI,000,1
626,BEI,Beica,ET,ET,HABE,BEI,9.391667,34.533333,Africa/Addis_Ababa,3,N,N,7730583,,230,2
627,BEJ,Kalimaru,ID,ID,WALK,BEJ,2.166667,117.700000,Asia/Makassar,8,N,N,7668667,,320,3
628,BEK,Bareli,IN,IN,,BEK,26.216667,81.233330,Asia/Kolkata,6,N,N,1277005,,330,3
629,BEL,"Val De Cans",BR,BR,SBBE,BEL,-1.389865,-48.480003,America/Belem,-3,N,N,6300600,,170,1
630,BEN,"Benina International",LY,LY,HLLB,BEN,32.085423,20.264890,Africa/Tripoli,1,N,N,6297330,,230,2
631,BEO,Belmont,AU,AU,YPEC,NTL,-33.033333,151.666670,Australia/Sydney,11,N,N,7668757,,340,3
632,BEP,Bellary,IN,IN,VOBI,BEP,15.183333,76.900000,Asia/Kolkata,6,N,N,6301119,,330,3
633,BEQ,Honington,GB,GB,,BEQ,52.350000,0.766667,Europe/London,0,N,N,2654186,,210,2
634,BES,"Brest Lesquin",FR,FR,LFRB,BES,48.445374,-4.415827,Europe/Paris,1,N,N,6299451,,210,2
635,BET,"Bethel Airport",US,US,PABE,BET,60.784443,-161.831390,America/Anchorage,-9,N,N,5880572,AK,008,1
636,BEU,Bedourie,AU,AU,YBIE,BEU,-24.230000,139.445000,Australia/Brisbane,10,N,N,7730242,,340,3
637,BEV,"Beer Sheba",IL,IL,LLBS,BEV,31.250000,34.800000,Asia/Jerusalem,2,N,N,6299657,,220,2
638,BEW,Beira,MZ,MZ,FQBR,BEW,-19.798805,34.901920,Africa/Maputo,2,N,N,1098915,,230,2
639,BEX,"Benson (RAF Station)",GB,GB,EGUB,BEX,51.633330,-1.083333,Europe/London,0,N,N,6296651,,210,2
640,BEY,"Beirut Rafic Hariri Airport",LB,LB,OLBA,BEY,33.826073,35.493080,Asia/Beirut,2,N,N,276781,,220,2
641,BEZ,Beru,KI,KI,NGBR,BEZ,-1.333333,176.000000,Pacific/Tarawa,12,N,N,6299951,,340,3
642,BFA,"Bahia Negra",PY,PY,,BFA,-20.232779,-58.170277,America/Asuncion,-3,N,N,7730857,,170,1
643,BFB,"Blue Fox Bay",US,US,,BFB,58.183334,-152.133330,America/Anchorage,-9,N,N,8299094,,000,1
644,BFC,Bloomfield,AU,AU,,BFC,-15.900000,145.333330,Australia/Brisbane,10,N,N,7730858,,340,3
645,BFD,Bradford,US,US,KBFD,BFD,41.802223,-78.639440,America/New_York,-5,N,N,5181425,PA,000,1
646,BFE,Bielefeld,DE,DE,EDLI,BFE,52.016666,8.550000,Europe/Berlin,1,N,N,2949186,,210,2
647,BFF,"Western Neb. Regional",US,US,KBFF,BFF,41.875280,-103.601110,America/Denver,-7,N,N,5700615,NE,000,1
648,BFG,"Bullfrog Basin",US,US,,BFG,37.545834,-110.713330,America/Denver,-7,N,N,5536135,,000,1
649,BFH,Bacacheri,BR,BR,SBBI,BFH,-25.402500,-49.233890,America/Sao_Paulo,-2,N,N,6300603,,170,1
650,BFI,"Boeing Field/King County International Airport",US,US,KBFI,SEA,47.537100,-122.303700,America/Los_Angeles,-8,N,N,5787710,WA,000,1
651,BFK,"Buffalo Municipal Airport",US,US,,DEN,39.733334,-104.866670,America/Denver,-7,N,N,0,,000,1
652,BFL,"Meadows Field",US,US,KBFL,BFL,35.429626,-119.045330,America/Los_Angeles,-8,N,N,5371940,CA,000,1
653,BFM,"Mobile Downtown",US,US,KBFM,MOB,30.683332,-88.233330,America/Chicago,-6,N,N,4051909,,000,1
654,BFN,Bloemfontein,ZA,ZA,FABL,BFN,-29.095854,26.297516,Africa/Johannesburg,2,N,N,1018725,,230,2
655,BFO,"Buffalo Range",ZW,ZW,FVCZ,BFO,-21.009167,31.579166,Africa/Harare,2,N,N,6297106,,230,2
656,BFP,"Beaver Falls",US,US,KBVI,BFP,40.766666,-80.400000,America/New_York,-5,N,N,5179455,,000,1
657,BFQ,"Bahia Pinas",PA,PA,,BFQ,7.583333,-78.166664,America/Panama,-5,N,N,7730859,,170,1
658,BFR,"Virgil I Grissom Municipalcipal",US,US,KBFR,BFR,38.866670,-86.483330,America/Indiana/Indianapolis,-5,N,N,4266314,,000,1
659,BFS,"Aldergrove International Airport",GB,GB,EGAA,BFS,54.662395,-6.217616,Europe/London,0,N,N,6296569,,210,2
660,BFT,County,US,US,KBFT,BFT,32.410830,-80.635000,America/New_York,-5,N,N,6298743,,000,1
661,BFU,Bengbu,CN,CN,ZSBB,BFU,32.950000,117.333336,Asia/Shanghai,8,N,N,1816440,,320,3
662,BFV,"Buri Ram",TH,TH,VTUO,BFV,15.226944,103.255280,Asia/Bangkok,7,N,N,7668646,,320,3
663,BFW,"Sidi Belabbes",DZ,DZ,DAOS,BFW,35.171665,-0.589444,Africa/Algiers,1,N,N,2570472,,210,2
664,BFX,Bafoussam,CM,CM,FKKU,BFX,5.483333,10.400000,Africa/Douala,1,N,N,7668242,,230,2
665,BGA,"Palo Negro",CO,CO,SKBG,BGA,7.128045,-73.181400,America/Bogota,-5,N,N,6300735,,000,1
666,BGB,Booue,GA,GA,FOGB,BGB,-0.106667,11.938889,Africa/Libreville,1,N,N,7730522,,230,2
667,BGC,Braganca,PT,PT,LPBG,BGC,41.816666,-6.750000,Europe/Lisbon,0,N,N,6299677,,210,2
668,BGD,Borger,US,US,KBGD,BGD,35.650000,-101.400000,America/Chicago,-6,N,N,5523631,,000,1
669,BGE,"Decatur County",US,US,KBGE,BGE,30.916668,-84.583336,America/New_York,-5,N,N,4191129,,000,1
670,BGF,Bangui,CF,CF,FEFF,BGF,4.396111,18.520279,Africa/Bangui,1,N,N,6296971,,230,2
671,BGG,Bongouanou,TR,TR,,BGG,6.700000,-4.250000,Europe/Istanbul,2,N,N,8394054,,210,2
672,BGH,Abbaye,MR,MR,GQNE,BGH,16.633333,-14.200000,Africa/Nouakchott,0,N,N,7668284,,230,2
673,BGI,"Grantley Adams International",BB,BB,TBPB,BGI,13.080732,-59.487835,America/Barbados,-4,N,N,3374036,,140,1
674,BGJ,"Borgarfjordur Eystri",IS,IS,BIBF,BGJ,66.000000,-14.500000,Atlantic/Reykjavik,0,N,N,7730421,,210,2
675,BGK,"Big Creek",BZ,BZ,,BGK,16.516666,-88.400000,America/Belize,-6,N,N,3582656,,160,1
676,BGL,Baglung,NP,NP,VNBL,BGL,28.215279,83.683334,Asia/Kathmandu,6,N,N,7730860,,330,3
677,BGM,"Greater Binghamton",US,US,KBGM,BGM,42.208534,-75.982940,America/New_York,-5,N,N,5109179,NY,000,1
678,BGO,"Bergen Airport, Flesland",NO,NO,ENBR,BGO,60.289062,5.228169,Europe/Oslo,1,N,N,6296727,,210,2
679,BGP,Bongo,GA,GA,,BGP,-1.650000,13.433333,Africa/Libreville,1,N,N,8298721,,230,2
680,BGQ,"Big Lake",US,US,PAGQ,BGQ,31.200000,-101.466670,America/Anchorage,-9,N,N,5880670,,000,1
681,BGR,"Bangor International Airport",US,US,KBGR,BGR,44.812298,-68.821020,America/New_York,-5,N,N,4957297,ME,000,1
682,BGS,"Webb AFB",US,US,,HCA,32.385555,-101.483330,America/Chicago,-6,N,N,0,,000,1
683,BGT,Bagdad,US,US,,BGT,34.566666,-113.183334,America/Phoenix,-7,N,N,5552590,,000,1
684,BGU,Bangassou,CF,CF,FEFG,BGU,4.786667,22.784445,Africa/Bangui,1,N,N,6296972,,230,2
685,BGV,"Bento Goncalves",BR,BR,,BGV,-29.166668,-51.516666,America/Sao_Paulo,-2,N,N,8298946,,170,1
686,BGW,"Baghdad International",IQ,IQ,ORBI,BGW,33.255554,44.225000,Asia/Baghdad,3,N,N,7603289,,220,2
687,BGX,"Airport Cmdt. Gustavo Kraemer",BR,BR,SBBG,BGX,-31.398611,-54.112500,America/Sao_Paulo,-2,N,N,6300601,,170,1
688,BGY,"Bergamo - Orio al Serio",IT,IT,LIME,MIL,45.665314,9.698713,Europe/Rome,1,N,N,6299575,,210,2
689,BGZ,Braga,PT,PT,LPBR,BGZ,41.550000,-8.433333,Europe/Lisbon,0,N,N,7730100,,210,2
690,BHA,"Bahia De Caraquez",EC,EC,SEBC,BHA,-0.600000,-80.416664,America/Guayaquil,-5,N,N,6300710,,170,1
691,BHB,"Bar Harbor",US,US,KBHB,BHB,44.448890,-68.361664,America/New_York,-5,N,N,4966387,ME,000,1
692,BHC,"Bhurban Heliport",PK,PK,,BHC,33.925000,73.433334,Asia/Karachi,5,N,N,0,,330,3
693,BHD,"George Best Belfast City",GB,GB,EGAC,BFS,54.614520,-5.870215,Europe/London,0,N,N,6296570,,210,2
694,BHE,"Woodbourne Air Station",NZ,NZ,NZWB,BHE,-41.513588,173.867650,Pacific/Auckland,13,N,N,7534797,,340,3
695,BHF,"Bahia Cupica",CO,CO,,BHF,6.716667,-77.516670,America/Bogota,-5,N,N,8298982,,000,1
696,BHG,"Brus Laguna",HN,HN,MHBL,BHG,15.734722,-84.543335,America/Tegucigalpa,-6,N,N,7730657,,160,1
697,BHH,Bisha,SA,SA,OEBH,BHH,19.994509,42.618484,Asia/Riyadh,3,N,N,6300011,,220,2
698,BHI,"Comandante Espora",AR,AR,SAZB,BHI,-38.730556,-62.150555,America/Argentina/Buenos_Aires,-3,N,N,6300580,,170,1
699,BHJ,"Rudra Mata",IN,IN,VABJ,BHJ,23.287500,69.670555,Asia/Kolkata,6,N,N,6301034,,330,3
700,BHK,Bukhara,UZ,UZ,UTSB,BHK,39.760370,64.474790,Asia/Samarkand,5,N,N,7730203,,320,3
701,BHL,"Bahia Angeles",MX,MX,,BHL,28.950000,-113.550000,America/Santa_Isabel,-8,N,N,0,,000,1
702,BHM,Birmingham,US,US,KBHM,BHM,33.560833,-86.752190,America/Chicago,-6,N,N,4049999,AL,000,1
703,BHN,Beihan,YE,YE,OYBN,BHN,14.783333,45.733334,Asia/Aden,3,N,N,7730144,,220,2
704,BHO,Bhopal,IN,IN,VABP,BHO,23.284761,77.341770,Asia/Kolkata,6,N,N,6301036,,330,3
705,BHP,Bhojpur,NP,NP,VNBJ,BHP,27.183332,87.050000,Asia/Kathmandu,6,N,N,7668613,,330,3
706,BHQ,"Broken Hill",AU,AU,YBHI,BHQ,-31.998983,141.468570,Australia/Broken_Hill,11,N,N,7668685,,340,3
707,BHR,"Bharatpur Airport",NP,NP,VNBP,BHR,27.676390,84.432500,Asia/Kathmandu,6,N,N,7668614,,330,3
708,BHS,Raglan,AU,AU,YBTH,BHS,-33.413870,149.655180,Australia/Sydney,11,N,N,7730002,,340,3
709,BHT,"Brighton Downs",AU,AU,,BHT,-23.366667,141.566670,Australia/Brisbane,10,N,N,8298711,,340,3
710,BHU,Bhavnagar,IN,IN,VABV,BHU,21.755000,72.184440,Asia/Kolkata,6,N,N,6301869,,330,3
711,BHV,Bahawalpur,PK,PK,OPBW,BHV,29.400000,71.683334,Asia/Karachi,5,N,N,7668393,,330,3
712,BHW,"Bhagatanwala Airport",PK,PK,,SGI,32.166668,72.666664,Asia/Karachi,5,N,N,0,,330,3
713,BHX,"Birmingham International Airport",GB,GB,EGBB,BHX,52.452520,-1.733256,Europe/London,0,N,N,6296572,,210,2
714,BHY,Beihai,CN,CN,ZGBH,BHY,21.540333,109.287850,Asia/Shanghai,8,N,N,7730862,,320,3
715,BIA,Poretta,FR,FR,LFKB,BIA,42.547615,9.480124,Europe/Paris,1,N,N,6299392,,210,2
716,BIB,Baidoa,SO,SO,HCMB,BIB,3.066667,43.633330,Africa/Mogadishu,3,N,N,7730598,,230,2
717,BIC,"Big Creek",US,US,,BIC,58.300000,-157.516660,America/Sitka,-9,N,N,8299340,,000,1
718,BID,"Block Island",US,US,KBID,BID,41.169434,-71.579610,America/New_York,-5,N,N,6944260,RI,000,1
719,BIE,Beatrice,US,US,BIES,BIE,40.300000,-96.750000,America/Chicago,-6,N,N,5063659,,000,1
720,BIF,"Biggs AAF",US,US,KBIF,ELP,31.750000,-106.483330,America/Denver,-7,N,N,5517110,,000,1
721,BIG,"Intermediate Field",US,US,PABI,BIG,64.067780,-145.732770,America/Anchorage,-9,N,N,5880620,AK,008,1
722,BIH,Bishop,US,US,KBIH,BIH,37.373333,-118.365000,America/Los_Angeles,-8,N,N,5328809,,000,1
723,BII,"Enyu Airfield",MH,MH,,BII,11.525081,165.565120,Pacific/Majuro,12,N,N,0,,370,3
724,BIK,"Frans Kaisepo",ID,ID,WABB,BIK,-1.191919,136.105820,Asia/Jayapura,9,N,N,6301180,,320,3
725,BIL,Billings,US,US,KBIL,BIL,45.803417,-108.537230,America/Denver,-7,N,N,5663220,MT,000,1
726,BIM,International,BS,BS,MYBS,BIM,25.700000,-79.283330,America/Nassau,-5,N,N,6299936,,140,1
727,BIN,Bamiyan,AF,AF,OABN,BIN,34.804170,67.823610,Asia/Kabul,5,N,N,7668387,,330,3
728,BIO,Bilbao,ES,ES,LEBB,BIO,43.305534,-2.905808,Europe/Madrid,1,N,N,6299328,,210,2
729,BIP,Bulimba,AU,AU,,BIP,-16.150000,143.750000,Australia/Brisbane,10,N,N,2207247,,340,3
730,BIQ,"Biarritz Parme",FR,FR,LFBZ,BIQ,43.472416,-1.531242,Europe/Paris,1,N,N,6299382,,210,2
731,BIR,Biratnagar,NP,NP,VNVT,BIR,26.434723,87.283330,Asia/Kathmandu,6,N,N,6301117,,330,3
732,BIS,Bismarck,US,US,KBIS,BIS,46.774480,-100.758210,America/Chicago,-6,N,N,5688027,ND,000,1
733,BIT,Baitadi,NP,NP,VNBT,BIT,29.000000,80.500000,Asia/Kathmandu,6,N,N,7730863,,330,3
734,BIU,Bildudalur,IS,IS,BIBD,BIU,65.833336,-23.983334,Atlantic/Reykjavik,0,N,N,7668100,,210,2
735,BIV,Bria,CF,CF,KBIV,BIV,6.533333,21.983334,Africa/Bangui,1,N,N,6296978,,230,2
736,BIW,Billiluna,AU,AU,,BIW,-19.566668,127.166664,Australia/Perth,8,N,N,8298692,,340,3
737,BIX,"Keesler AFB",US,US,,BIX,30.400000,-88.883330,America/Chicago,-6,N,N,0,,000,1
738,BIY,Bisho,ZA,ZA,FABE,BIY,-35.883330,27.283333,Africa/Johannesburg,2,N,N,7730071,,230,2
739,BJA,Bejaia,DZ,DZ,DAAE,BJA,36.750000,5.083333,Africa/Algiers,1,N,N,6296361,,210,2
740,BJB,Bojnord,IR,IR,OIMN,BJB,37.489720,57.308850,Asia/Tehran,4,N,N,6300066,,220,2
741,BJC,Jeffco,US,US,KBJC,BJC,39.933334,-105.066666,America/Denver,-7,N,N,5426497,,000,1
742,BJD,Bakkafjordur,IS,IS,BIBK,BJD,66.066666,-14.750000,Atlantic/Reykjavik,0,N,N,7730422,,210,2
743,BJE,Baleela,SD,SD,,BJE,11.210000,28.520000,Africa/Khartoum,3,N,N,8260710,,220,2
744,BJF,Batsfjord,NO,NO,ENBS,BJF,70.600000,29.666668,Europe/Oslo,1,N,N,6296728,,210,2
745,BJG,Bolaang,ID,ID,,BJG,-0.950000,122.100000,Asia/Makassar,8,N,N,7730864,,320,3
746,BJH,Bajhang,NP,NP,VNBG,BJH,29.550000,81.250000,Asia/Kathmandu,6,N,N,7668612,,330,3
747,BJI,Bemidji,US,US,KBJI,BJI,47.509724,-94.934720,America/Chicago,-6,N,N,5017827,MN,000,1
748,BJJ,"Wayne County",US,US,KBJJ,BJJ,40.800000,-81.933334,America/New_York,-5,N,N,5177358,,000,1
749,BJK,Benjina,ID,ID,WAPK,BJK,-6.083333,134.250000,Asia/Jayapura,9,N,N,7730865,,320,3
750,BJL,"Yundum International",GM,GM,GBYD,BJL,13.344060,-16.652200,Africa/Banjul,0,N,N,2413876,,230,2
751,BJM,International,BI,BI,HBBA,BJM,-3.383333,29.366667,Africa/Bujumbura,2,N,N,425378,,230,2
752,BJN,Bajone,MZ,MZ,,BJN,-17.183332,38.083332,Africa/Maputo,2,N,N,1052636,,230,2
753,BJO,Bermejo,BO,BO,SLBJ,BJO,-22.866667,-64.333336,America/La_Paz,-4,N,N,7668467,,170,1
754,BJP,"Braganca Paulista",BR,BR,SBBP,BJP,-22.950000,-46.566666,America/Sao_Paulo,-2,N,N,8298897,,170,1
755,BJQ,Bahja,OM,OM,,BJQ,19.875000,56.061900,Asia/Muscat,4,N,N,8260700,,220,2
756,BJR,"Bahar Dar",ET,ET,HABD,BJR,11.603292,37.323240,Africa/Addis_Ababa,3,N,N,6297263,,230,2
757,BJT,"Bentota River",LK,LK,,BJT,6.483333,79.983330,Asia/Colombo,6,N,N,0,,330,3
758,BJU,"Bajura Airport",NP,NP,VNBR,BJU,29.366667,81.333336,Asia/Kathmandu,6,N,N,7668615,,330,3
759,BJV,Milas,TR,TR,LTFE,BJV,37.243954,27.672781,Europe/Istanbul,2,N,N,6299771,,210,2
760,BJW,Bajawa,ID,ID,WATB,BJW,-8.766667,120.983330,Asia/Makassar,8,N,N,8299216,,320,3
761,BJX,"Del Bajío International",MX,MX,MMLO,BJX,20.985699,-101.479000,America/Mexico_City,-6,N,N,6299851,,000,1
762,BJY,Batajnica,RS,RS,LYBT,BEG,44.935280,20.257500,Europe/Belgrade,1,N,N,7668336,,210,2
763,BJZ,"Talaveral La Real",ES,ES,LEBZ,BJZ,38.891666,-6.820000,Europe/Madrid,1,N,N,6299330,,210,2
764,BKB,Bikaner,IN,IN,VIBK,BKB,28.016666,73.300000,Asia/Kolkata,6,N,N,7730216,,330,3
765,BKC,Buckland,US,US,PABL,BKC,65.978890,-161.126660,America/Anchorage,-9,N,N,5858173,,000,1
766,BKD,"Stephens County",US,US,,BKD,32.750000,-98.900000,America/Chicago,-6,N,N,0,,000,1
767,BKE,Baker,US,US,KBKE,BKE,44.838333,-117.810000,America/Los_Angeles,-8,N,N,5712208,,000,1
768,BKF,"Lake Brooks SPB",US,US,KBKF,BKF,58.600000,-156.233340,America/Anchorage,-9,N,N,5415293,,000,1
769,BKG,Branson,US,US,KBBG,BKG,36.532080,-93.200550,America/Chicago,-6,N,N,4378226,,000,1
770,BKH,"Barking Sands PMRF",US,US,PHBK,BKH,21.966667,-159.716660,Pacific/Honolulu,-10,N,N,6300268,,000,1
771,BKI,"Kota-Kinabalu International Airport",MY,MY,WBKK,BKI,5.923961,116.050750,Asia/Kuching,8,N,N,1772439,,320,3
772,BKJ,Boke,GN,GN,GUOK,BKJ,10.966667,-14.283333,Africa/Conakry,0,N,N,6297253,,,
773,BKK,"Suvarnabhumi International",TH,TH,VTBS,BKK,13.693062,100.752045,Asia/Bangkok,7,N,N,6301137,,320,3
774,BKL,"Burke Lakefront",US,US,KBKL,CLE,41.516945,-81.683334,America/New_York,-5,N,N,5148736,OH,000,1
775,BKM,Bakalalan,MY,MY,WBGQ,BKM,3.966667,115.616670,Asia/Kuching,8,N,N,7730866,,320,3
776,BKO,Bamako,ML,ML,GABS,BKO,12.540926,-7.947951,Africa/Bamako,0,N,N,6297167,,230,2
777,BKP,"Barkly Downs",AU,AU,,BKP,-20.500000,138.500000,Australia/Brisbane,10,N,N,8298911,,340,3
778,BKQ,Blackall,AU,AU,YBCK,BKQ,-24.434168,145.428330,Australia/Brisbane,10,N,N,7668684,,340,3
779,BKR,Bokoro,TD,TD,FTTK,BKR,12.416667,17.233334,Africa/Ndjamena,1,N,N,2434986,,230,2
780,BKS,Padangkemiling,ID,ID,WIPL,BKS,-3.866159,102.343490,Asia/Jakarta,7,N,N,6301246,,320,3
781,BKT,"Blackstone AAF",US,US,KBKT,BKT,37.066666,-78.000000,America/New_York,-5,N,N,4747839,,000,1
782,BKU,Betioky,MG,MG,,BKU,-23.732222,44.391110,Indian/Antananarivo,3,N,N,1066310,,230,2
783,BKW,Beckley,US,US,KBKW,BKW,37.781944,-81.124170,America/New_York,-5,N,N,4819314,WV,000,1
784,BKX,Brookings,US,US,,BKX,44.303333,-96.811110,America/Chicago,-6,N,N,5226540,SD,000,1
785,BKY,Kavumu,CD,CD,FZMA,BKY,-2.300000,28.816668,Africa/Lubumbashi,2,N,N,7668273,,230,2
786,BKZ,Bukoba,TZ,TZ,HTBU,BKZ,-1.300000,31.800000,Africa/Dar_es_Salaam,3,N,N,6297352,,230,2
787,BLA,"Gen J A Anzoategui",VE,VE,SVBC,BLA,10.107936,-64.685890,America/Caracas,-5,N,N,3648559,,170,1
788,BLB,Balboa,PA,PA,,BLB,8.973056,-79.557500,America/Panama,-5,N,N,3714426,,170,1
789,BLC,Bamenda,CM,CM,FKKG,BLC,5.897222,10.031667,Africa/Douala,1,N,N,2235029,,230,2
790,BLD,"Boulder City",US,US,KBVU,LAS,35.983334,-114.833336,America/Los_Angeles,-8,N,N,5500543,,000,1
791,BLE,"Dala Airport",SE,SE,ESSD,BLE,60.429730,15.508260,Europe/Stockholm,1,N,N,2720384,,210,2
792,BLF,Princeton,US,US,,BLF,37.295834,-81.208050,America/New_York,-5,N,N,4814466,,000,1
793,BLG,Belaga,MY,MY,WBGC,BLG,2.700000,113.783330,Asia/Kuching,8,N,N,7730867,,320,3
794,BLH,Blythe,US,US,KBLH,BLH,33.620834,-114.718890,America/Los_Angeles,-8,N,N,5329650,,000,1
795,BLI,Bellingham,US,US,KBLI,BLI,48.795734,-122.532670,America/Los_Angeles,-8,N,N,5786905,WA,000,1
796,BLJ,Batna,DZ,DZ,DABT,BLJ,35.566666,6.183333,Africa/Algiers,1,N,N,6296374,,210,2
797,BLK,"Blackpool Airport",GB,GB,EGNH,BLK,53.778385,-3.041985,Europe/London,0,N,N,6296605,,210,2
798,BLL,Billund,DK,DK,EKBI,BLL,55.747383,9.147874,Europe/Copenhagen,1,N,N,6296703,,210,2
799,BLM,"Monmouth Executive Airport",US,US,KBLM,BLM,40.183334,-74.016670,America/New_York,-5,N,N,5095112,NJ,000,1
800,BLN,Benalla,AU,AU,YBLA,BLN,-36.550000,145.983340,Australia/Melbourne,11,N,N,7668687,,340,3
801,BLO,Blonduos,IS,IS,BIBL,BLO,65.666664,-20.300000,Atlantic/Reykjavik,0,N,N,7730423,,210,2
802,BLP,Bellavista,PE,PE,SPBL,BLP,-16.583332,-69.416664,America/Lima,-5,N,N,7730868,,170,1
803,BLQ,"Guglielmo Marconi",IT,IT,LIPE,BLQ,44.529266,11.293289,Europe/Rome,1,N,N,6290247,,210,2
804,BLR,"Bangalore International Airport",IN,IN,VOBL,BLR,13.198889,77.705560,Asia/Kolkata,6,N,N,7303386,,330,3
805,BLS,Bollon,AU,AU,YBLL,BLS,-28.050000,147.483340,Australia/Brisbane,10,N,N,7730869,,340,3
806,BLT,Blackwater,AU,AU,YBTR,BLT,-23.602184,148.808400,Australia/Brisbane,10,N,N,7668693,,340,3
807,BLU,"Blue Canyon",US,US,KBLU,BLU,39.250000,-120.716670,America/Los_Angeles,-8,N,N,5329473,,000,1
808,BLV,Belleville,US,US,KBLV,BLV,38.651780,-89.851830,America/Chicago,-6,N,N,4238794,IL,000,1
809,BLX,Belluno,IT,IT,,BLX,46.150000,12.216667,Europe/Rome,1,N,N,3182210,,210,2
810,BLY,Belmullet,IE,IE,EIBT,BLY,54.233334,-10.000000,Europe/Dublin,0,N,N,7668215,,210,2
811,BLZ,Chileka,MW,MW,FWCL,BLZ,-15.674722,34.970833,Africa/Blantyre,2,N,N,931755,,230,2
812,BMA,Bromma,SE,SE,ESSB,STO,59.355660,17.946080,Europe/Stockholm,1,N,N,2719114,,210,2
813,BMB,Bumba,CD,CD,FZFU,BMB,2.190000,22.473333,Africa/Kinshasa,1,N,N,7730561,,230,2
814,BMC,"Brigham City",US,US,KBMC,BMC,41.549168,-112.062225,America/Denver,-7,N,N,5771966,,000,1
815,BMD,Belo,MG,MG,FMML,BMD,-20.733334,44.050000,Indian/Antananarivo,3,N,N,1067532,,230,2
816,BME,Broome,AU,AU,YBRM,BME,-17.952640,122.234290,Australia/Perth,8,N,N,6301303,,340,3
817,BMF,Bakouma,CF,CF,FEGM,BMF,5.733333,22.800000,Africa/Bangui,1,N,N,7668237,,230,2
818,BMG,Bloomington,US,US,KBMG,BMG,39.140000,-86.614720,America/Indiana/Indianapolis,-5,N,N,4261527,IN,000,1
819,BMH,Bomai,PG,PG,,BMH,-6.416667,144.583330,Pacific/Port_Moresby,10,N,N,8298888,,340,3
820,BMI,"Central Illinois Regional Airport at Bloomington-Normal",US,US,KBMI,BMI,40.484010,-88.914830,America/Chicago,-6,N,N,4885175,IL,000,1
821,BMJ,Baramita,GY,GY,SYBR,BMJ,6.750000,-60.000000,America/Guyana,-4,N,N,7730871,,140,1
822,BMK,Borkum,DE,DE,,BMK,53.600000,6.700000,Europe/Berlin,1,N,N,2946206,,210,2
823,BML,"Berlin Municipal Airport",US,US,KBML,BML,44.574722,-71.176390,America/New_York,-5,N,N,5083333,,000,1
824,BMM,Bitam,GA,GA,FOOB,BMM,2.075833,11.490833,Africa/Libreville,1,N,N,6297066,,230,2
825,BMN,Bamerny,IQ,IQ,,BMN,37.100000,43.266666,Asia/Baghdad,3,N,N,8260953,,220,2
826,BMO,Bhamo,MM,MM,VYBM,BMO,24.273890,97.251660,Asia/Rangoon,7,N,N,8260784,,320,3
827,BMP,"Brampton Island",AU,AU,YBPI,BMP,-20.783333,149.233340,Australia/Brisbane,10,N,N,7730872,,340,3
828,BMQ,Bamburi,KE,KE,KBMQ,BMQ,-4.500000,39.833332,Africa/Nairobi,3,N,N,7730873,,230,2
829,BMR,Baltrum,DE,DE,,BMR,53.716667,7.400000,Europe/Berlin,1,N,N,2953006,,210,2
830,BMS,Brumado,BR,BR,SNBU,BMS,-14.233333,-41.633330,America/Bahia,-3,N,N,7730874,,170,1
831,BMT,"Beaumont Municipalcipal",US,US,KBMT,BPT,30.083332,-94.100000,America/Chicago,-6,N,N,4673007,,000,1
832,BMU,Bima,ID,ID,WRRB,BMU,-8.500000,118.916664,Asia/Makassar,8,N,N,6301280,,320,3
833,BMV,Phung-Duc,VN,VN,VVBM,BMV,12.666667,108.050000,Asia/Ho_Chi_Minh,7,N,N,7668649,,320,3
834,BMW,"Bordj Badji Mokhtar",DZ,DZ,DATM,BMW,21.316668,1.033333,Africa/Algiers,1,N,N,6296385,,210,2
835,BMX,"Big Mountain",US,US,,BMX,59.361942,-155.256670,America/Anchorage,-9,N,N,0,,000,1
836,BMY,"Belep Island",NC,NC,NWWC,BMY,-19.750000,163.666670,Pacific/Noumea,11,N,N,7730137,,340,3
837,BMZ,Bamu,PG,PG,,BMZ,-7.833333,143.233340,Pacific/Port_Moresby,10,N,N,8298992,,340,3
838,BNA,"Nashville International",US,US,KBNA,BNA,36.131740,-86.668945,America/Chicago,-6,N,N,4644589,TN,000,1
839,BNB,Boende,CD,CD,FZGN,BNB,-0.233056,20.870000,Africa/Kinshasa,1,N,N,6297148,,230,2
840,BNC,Beni,CD,CD,FZNP,BNC,0.566667,29.466667,Africa/Lubumbashi,2,N,N,219057,,230,2
841,BND,"Bandar Abbas",IR,IR,OIKB,BND,27.210590,56.368385,Asia/Tehran,4,N,N,6300059,,220,2
842,BNE,"Brisbane International",AU,AU,YBBN,BNE,-27.403030,153.109050,Australia/Brisbane,10,N,N,6301292,,340,3
843,BNF,"Warm Spring Bay SPB",US,US,,BNF,57.000000,-135.000000,America/Sitka,-9,N,N,5844535,,000,1
844,BNG,Banning,US,US,KBNG,BNG,33.933334,-116.866670,America/Los_Angeles,-8,N,N,5326039,,000,1
845,BNH,Barnes,US,US,,HFD,41.766666,-72.683334,America/New_York,-5,N,N,0,,000,1
846,BNI,"Benin City",NG,NG,DNBE,BNI,6.316943,5.603863,Africa/Lagos,1,N,N,2347283,,230,2
847,BNK,"Ballina Byron Gateway",AU,AU,YBNA,BNK,-28.837606,153.556400,Australia/Sydney,11,N,N,7730243,,340,3
848,BNL,"Barnwell Regional",US,US,KBNL,BNL,33.250000,-81.383330,America/New_York,-5,N,N,4570021,,000,1
849,BNM,Bodinumu,PG,PG,,BNM,-9.116667,147.616670,Pacific/Port_Moresby,10,N,N,2099296,,340,3
850,BNN,Bronnoy,NO,NO,ENBN,BNN,65.461700,12.215772,Europe/Oslo,1,N,N,6296725,,210,2
851,BNO,Burns,US,US,KBNO,BNO,43.583332,-118.950000,America/Los_Angeles,-8,N,N,5716842,,000,1
852,BNP,Bannu,PK,PK,,BNP,33.000000,70.666664,Asia/Karachi,5,N,N,0,,330,3
853,BNR,Banfora,BF,BF,DFOB,BNR,10.666667,-4.666667,Africa/Ouagadougou,0,N,N,7730463,,230,2
854,BNS,Barinas,VE,VE,SVBI,BNS,8.618056,-70.221110,America/Caracas,-5,N,N,6300841,,170,1
855,BNT,Bundi,PG,PG,,BNT,-5.750000,145.450000,Pacific/Port_Moresby,10,N,N,2098818,,340,3
856,BNU,Blumenau,BR,BR,SSBL,BNU,-27.000000,-49.000000,America/Sao_Paulo,-2,N,N,7730875,,170,1
857,BNW,Boone,US,US,KBNW,BNW,42.066666,-93.883330,America/Chicago,-6,N,N,4849071,,000,1
858,BNX,"Banja Luka",BA,BA,LQBK,BNX,44.933334,17.300000,Europe/Sarajevo,1,N,N,6299693,,210,2
859,BNY,Bellona,SB,SB,AGGB,BNY,-11.300000,159.816670,Pacific/Guadalcanal,11,N,N,8298647,,340,3
860,BOA,Boma,CD,CD,FZAJ,BOA,-5.866667,13.066667,Africa/Kinshasa,1,N,N,7730552,,230,2
861,BOB,"Motu Mute",PF,PF,NTTB,BOB,-16.446207,-151.754470,Pacific/Tahiti,-10,N,N,6299965,,340,3
862,BOC,"Bocas Del Toro",PA,PA,MPBO,BOC,9.340000,-82.251945,America/Panama,-5,N,N,6299894,,170,1
863,BOD,Mérignac,FR,FR,LFBD,BOD,44.831020,-0.702170,Europe/Paris,1,N,N,6299367,,210,2
864,BOE,Boundji,CG,CG,FCOB,BOE,-1.033333,15.383333,Africa/Brazzaville,1,N,N,7730499,,230,2
865,BOF,"Bolling AFB",US,US,,WAS,38.900000,-77.033330,America/New_York,-5,N,N,0,,000,1
866,BOG,"El Nuevo Dorado International",CO,CO,SKBO,BOG,4.698602,-74.143135,America/Bogota,-5,N,N,6300736,,000,1
867,BOH,"Bournemouth International",GB,GB,EGHH,BOH,50.778270,-1.832476,Europe/London,0,N,N,6296591,,210,2
868,BOI,"Boise Air Terminal/Gowen Field",US,US,KBOI,BOI,43.569263,-116.221930,America/Boise,-7,N,N,5586438,ID,000,1
869,BOJ,Bourgas,BG,BG,LBBG,BOJ,42.416668,27.283333,Europe/Sofia,2,N,N,6299305,,210,2
870,BOK,"Brookings State",US,US,KBOK,BOK,42.050000,-124.283330,America/Los_Angeles,-8,N,N,5715909,,000,1
871,BOL,Ballykelly,GB,GB,EGQB,BOL,55.000000,-7.000000,Europe/London,0,N,N,7730474,,210,2
872,BOM,"Chhatrapati Shivaji International (Sahar International)",IN,IN,VABB,BOM,19.095509,72.874970,Asia/Kolkata,6,N,N,6301032,,330,3
873,BON,"Flamingo International",BQ,BQ,TNCB,BON,12.133403,-68.276870,America/Kralendijk,-4,N,N,3513745,,,
874,BOO,Bodo,NO,NO,ENBO,BOO,67.272620,14.367839,Europe/Oslo,1,N,N,6296726,,210,2
875,BOP,Bouar,CF,CF,FEFO,BOP,6.000000,15.666667,Africa/Bangui,1,N,N,6296977,,230,2
876,BOS,"Logan International",US,US,KBOS,BOS,42.366460,-71.020180,America/New_York,-5,N,N,4937646,MA,000,1
877,BOT,Boset,PG,PG,,BOT,-7.233333,141.083330,Pacific/Port_Moresby,10,N,N,2099079,,340,3
878,BOU,Bourges,FR,FR,LFLD,BOU,47.150000,2.416667,Europe/Paris,1,N,N,6299400,,210,2
879,BOV,Boang,PG,PG,,BOV,-3.366667,153.333330,Pacific/Port_Moresby,10,N,N,8298814,,340,3
880,BOW,Bartow,US,US,KBOW,BOW,27.900000,-81.833336,America/New_York,-5,N,N,4146730,,000,1
881,BOX,Borroloola,AU,AU,BOCH,BOX,-16.066668,136.283340,Australia/Darwin,10,N,N,7730876,,340,3
882,BOY,Borgo,BF,BF,DFOO,BOY,11.163611,-4.324444,Africa/Ouagadougou,0,N,N,6296412,,230,2
883,BOZ,Bozoum,CF,CF,FEGZ,BOZ,6.416667,16.583332,Africa/Bangui,1,N,N,7730502,,230,2
884,BPB,Boridi,PG,PG,,BPB,-9.133333,147.533340,Pacific/Port_Moresby,10,N,N,2099116,,340,3
885,BPC,Bamenda,CM,CM,FKKV,BPC,5.916667,10.150000,Africa/Douala,1,N,N,6297004,,230,2
886,BPD,Bapi,PG,PG,,BPD,-7.750000,147.016660,Pacific/Port_Moresby,10,N,N,8260780,,340,3
887,BPE,Bagan,MM,MM,,BPE,24.000000,96.000000,Asia/Rangoon,7,N,N,0,,320,3
888,BPF,"Batuna Aerodrome",SB,SB,AGBT,BPF,-8.550000,158.116670,Pacific/Guadalcanal,11,N,N,8299145,,340,3
889,BPG,"Barra Do Garcas",BR,BR,SBBW,BPG,-15.850000,-52.383330,America/Cuiaba,-3,N,N,6300608,,170,1
890,BPH,Bislig,PH,PH,RPMF,BPH,8.196667,126.321110,Asia/Manila,8,N,N,1724768,,320,3
891,BPI,"Big Piney-marbleton",US,US,KBPI,BPI,42.533333,-110.116670,America/Denver,-7,N,N,5818709,,000,1
892,BPK,Biangabip,PG,PG,,BPK,-5.529722,141.749730,Pacific/Port_Moresby,10,N,N,0,AR,340,3
893,BPL,Alashankou,CN,CN,ZWBL,BPL,44.904232,82.024185,Asia/Shanghai,8,N,N,8260766,,320,3
894,BPM,Begumpet,IN,IN,VOHY,HYD,17.449114,78.471830,Asia/Kolkata,6,N,N,6301124,,330,3
895,BPO,"Bo'ao Railway Station",CN,CN,,BPO,NULL,NULL,Asia/Shanghai,8,Y,N,0,,320,3
896,BPS,"Porto Seguro",BR,BR,SBPS,BPS,-16.441158,-39.081097,America/Bahia,-3,N,N,6300659,,170,1
897,BPT,"Jefferson County",US,US,KBPT,BPT,29.950832,-94.020000,America/Chicago,-6,N,N,4700822,TX,000,1
898,BPU,Beppu,JP,JP,,BPU,33.250000,131.500000,Asia/Tokyo,9,N,N,0,,310,3
899,BPX,Bangda,CN,CN,ZUBD,BPX,30.555834,97.106670,Asia/Shanghai,8,N,N,7730300,,320,3
900,BPY,Besalampy,MG,MG,FMNQ,BPY,-16.750000,44.483334,Indian/Antananarivo,3,N,N,1066703,,230,2
901,BQA,Baler,PH,PH,RPUR,BQA,15.000000,121.083336,Asia/Manila,8,N,N,1728265,,320,3
902,BQB,Bussellton,AU,AU,,BQB,-33.716667,115.250000,Australia/Perth,8,N,N,7730187,,340,3
903,BQE,Bubaque,GW,GW,GGBU,BQE,11.300000,-15.850000,Africa/Bissau,0,N,N,7730579,,230,2
904,BQG,Bogorodskoye,RU,XU,,BQG,52.378334,140.448330,Asia/Vladivostok,11,N,N,8260786,,360,3
905,BQH,"Biggin Hill",GB,GB,EGKB,LON,51.333332,0.033333,Europe/London,0,N,N,6296597,,210,2
906,BQI,Bagani,NA,NA,,BQI,-18.118055,21.629723,Africa/Windhoek,2,N,N,877349,,230,2
907,BQJ,Batagay,RU,RU,UEBB,BQJ,67.655000,134.641667,Asia/Vladivostok,11,N,N,0,,210,2
908,BQK,"Glynco Jetport",US,US,KBQK,SSI,31.166668,-81.483330,America/New_York,-5,N,N,4197379,GA,000,1
909,BQL,Boulia,AU,AU,YBOU,BQL,-22.900000,139.900000,Australia/Brisbane,10,N,N,7730244,,340,3
910,BQN,Borinquen,PR,PR,TJBQ,BQN,18.495832,-67.130000,America/Puerto_Rico,-4,N,N,4567576,PR,000,1
911,BQO,Bouna,CI,CI,DIBN,BQO,9.266667,-3.000000,Africa/Abidjan,0,N,N,7730467,,230,2
912,BQQ,Barra,BR,BR,SNBX,BQQ,-11.083333,-43.133330,America/Bahia,-3,N,N,6453436,,170,1
913,BQS,Blagoveschensk,RU,XU,UHBB,BQS,50.416668,127.400000,Asia/Yakutsk,10,N,N,7668501,,360,3
914,BQT,Brest,BY,BY,UMBB,BQT,52.116670,23.883333,Europe/Minsk,3,N,N,6300976,,210,2
915,BQU,"J. F. Mitchell",VC,VC,TVSB,BQU,12.986667,-61.264168,America/St_Vincent,-4,N,N,6453419,,140,1
916,BQV,"Bartlett SPB",US,US,,GST,58.416668,-135.733340,America/Juneau,-9,N,N,0,,000,1
917,BQW,"Balgo Hills",AU,AU,YBGO,BQW,-20.183332,127.800000,Australia/Perth,8,N,N,7730877,,340,3
918,BRA,Barreiras,BR,BR,SNBR,BRA,-12.073056,-45.008330,America/Bahia,-3,N,N,7730878,,170,1
919,BRB,Barreirinhas,BR,BR,SBRR,BRB,-2.910626,-57.111110,America/Fortaleza,-3,N,N,7730879,,170,1
920,BRC,International,AR,AR,SAZS,BRC,-41.145966,-71.161090,America/Argentina/Salta,-3,N,N,6300590,,170,1
921,BRD,"Brainerd Lakes Regional",US,US,KBRD,BRD,46.397220,-94.137500,America/Chicago,-6,N,N,5019123,MN,000,1
922,BRE,Bremen,DE,DE,EDDW,BRE,53.052970,8.785352,Europe/Berlin,1,N,N,3208171,,210,2
923,BRF,Bradford,GB,GB,,LBA,53.800000,-1.750000,Europe/London,0,N,N,0,,210,2
924,BRH,Brahman,PG,PG,,BRH,-5.700000,145.366670,Pacific/Port_Moresby,10,N,N,8299003,,340,3
925,BRI,Palese,IT,IT,LIBD,BRI,41.133880,16.763910,Europe/Rome,1,N,N,6299535,,210,2
926,BRJ,Bright,AU,AU,,BRJ,-36.700000,146.933330,Australia/Melbourne,11,N,N,8298890,,340,3
927,BRK,Bourke,AU,AU,YBKE,BRK,-30.083332,145.933330,Australia/Sydney,11,N,N,7668686,,340,3
928,BRL,Burlington,US,US,KBRL,BRL,40.786110,-91.123340,America/Chicago,-6,N,N,4849845,IA,000,1
929,BRM,Barquisimeto,VE,VE,SVBM,BRM,10.046267,-69.359840,America/Caracas,-5,N,N,6300842,,170,1
930,BRN,Belp,CH,CH,LSZB,BRN,46.911728,7.503560,Europe/Zurich,1,N,N,6299720,,210,2
931,BRO,"South Padre Is. International",US,US,KBRO,BRO,25.908890,-97.423330,America/Chicago,-6,N,N,4676748,TX,000,1
932,BRP,Biaru,PG,PG,,BRP,-7.533333,146.700000,Pacific/Port_Moresby,10,N,N,8299074,,340,3
933,BRQ,Turany,CZ,CZ,LKTB,BRQ,49.150000,16.700000,Europe/Prague,1,N,N,6299656,,210,2
934,BRR,"North Bay",GB,GB,EGPR,BRR,57.023335,-7.440278,Europe/London,0,N,N,7670761,,210,2
935,BRS,Bristol,GB,GB,EGGD,BRS,51.386757,-2.710659,Europe/London,0,N,N,6296587,,210,2
936,BRT,"Bathurst Island",AU,AU,YBTI,BRT,-11.766667,130.633330,Australia/Darwin,10,N,N,7668692,,340,3
937,BRU,"Brussels Airport",BE,BE,EBBR,BRU,50.897170,4.483602,Europe/Brussels,1,N,N,6296486,,210,2
938,BRV,Bremerhaven,DE,DE,,BRV,53.750000,8.916667,Europe/Berlin,1,N,N,2944368,,210,2
939,BRW,"Wiley Post/W.Rogers M",US,US,PABR,BRW,71.288574,-156.775790,America/Anchorage,-9,N,N,5880054,AK,008,1
940,BRX,Barahona,DO,DO,MDBH,BRX,18.216667,-71.116670,America/Santo_Domingo,-4,N,N,6299792,,140,1
941,BRY,"Samuels Field",US,US,,BRY,37.816666,-85.466670,America/New_York,-5,N,N,4283133,,000,1
942,BRZ,Borotou,IT,IT,,BRZ,8.766667,-7.500000,Europe/Rome,1,N,N,3181554,,210,2
943,BSA,Bossaso,SO,SO,HCMF,BSA,11.283333,49.150000,Africa/Mogadishu,3,N,N,7668294,,230,2
944,BSB,"Presidente Juscelino Kubitschek",BR,BR,SBBR,BSB,-15.869807,-47.921486,America/Sao_Paulo,-2,N,N,6300605,,170,1
945,BSC,"Bahia Solano",CO,CO,SKBS,BSC,6.183333,-77.400000,America/Bogota,-5,N,N,7668455,,000,1
946,BSD,Baoshan,CN,CN,ZPBS,BSD,25.055182,99.161430,Asia/Shanghai,8,N,N,7910185,,320,3
947,BSE,Sematan,MY,MY,WBGN,BSE,1.800000,109.766670,Asia/Kuching,8,N,N,7730880,,320,3
948,BSF,"Bradshaw AAF",US,US,,BSF,21.383333,-157.750000,Pacific/Honolulu,-10,N,N,0,,000,1
949,BSG,Bata,GQ,GQ,FGBT,BSG,1.906667,9.802222,Africa/Malabo,1,N,N,7668240,,230,2
950,BSH,Brighton,GB,GB,,BSH,50.816666,-0.116667,Europe/London,0,N,N,2654710,,210,2
951,BSI,Blairsville,US,US,,BSI,40.450000,-79.283330,America/New_York,-5,N,N,8299248,,000,1
952,BSJ,Bairnsdale,AU,AU,YBNS,BSJ,-37.833332,147.633330,Australia/Melbourne,11,N,N,7668688,,340,3
953,BSK,"Mohamed Boudiaf",DZ,DZ,DAUB,BSK,34.793330,5.738056,Africa/Algiers,1,N,N,6296387,,210,2
954,BSL,"Euroairport Swiss",CH,CH,_BSL,EAP,47.599610,7.532604,Europe/Zurich,1,N,N,0,,210,2
955,BSM,Bishe-kola,IR,IR,OINJ,BSM,36.650000,52.350000,Asia/Tehran,4,N,N,7730746,,220,2
956,BSN,Bossangoa,CF,CF,FEFS,BSN,6.583333,17.500000,Africa/Bangui,1,N,N,6296979,,230,2
957,BSO,Basco,PH,PH,RPUO,BSO,20.453056,121.977776,Asia/Manila,8,N,N,6300486,,320,3
958,BSP,Bensbach,PG,PG,,BSP,-8.333333,141.083330,Pacific/Port_Moresby,10,N,N,8260949,,340,3
959,BSQ,"Bisbee Municipal Airport",US,US,,BSQ,31.363890,-109.881110,America/Phoenix,-7,N,N,5284913,,000,1
960,BSR,International,IQ,IQ,ORMM,BSR,30.555555,47.791390,Asia/Baghdad,3,N,N,6999872,,220,2
961,BSS,Balsas,BR,BR,SNBS,BSS,-7.516667,-46.050000,America/Fortaleza,-3,N,N,7730881,,170,1
962,BST,Bost,AF,AF,OABT,BST,31.550000,64.366670,Asia/Kabul,5,N,N,0,,330,3
963,BSU,Basankusu,CD,CD,FZEN,BSU,1.221667,19.788889,Africa/Kinshasa,1,N,N,7668267,,230,2
964,BSV,Besakoa,MG,MG,,BSV,-15.666667,47.066666,Indian/Antananarivo,3,N,N,8299242,,230,2
965,BSW,"Boswell Bay",US,US,,BSW,60.400000,-146.133330,America/Anchorage,-9,N,N,5857874,,000,1
966,BSX,Bassein,MM,MM,VYPN,BSX,16.800000,94.783330,Asia/Rangoon,7,N,N,7668662,,320,3
967,BSY,Bardera,SO,SO,HCMD,BSY,2.350000,42.333332,Africa/Mogadishu,3,N,N,8261065,,230,2
968,BSZ,Bartletts,US,US,,BSZ,58.233612,-157.350280,America/Anchorage,-9,N,N,5880068,,000,1
969,BTA,Yaoundé,CM,CM,FKKO,BTA,4.540833,13.727500,Africa/Douala,1,N,N,7730505,,230,2
970,BTB,Betou,CG,CG,FCOT,BTB,3.050000,18.500000,Africa/Brazzaville,1,N,N,7730500,,230,2
971,BTC,Batticaloa,LK,LK,VCCB,BTC,7.703333,81.678610,Asia/Colombo,6,N,N,6301062,,330,3
972,BTD,"Brunette Downs",AU,AU,,BTD,-18.666668,135.916670,Australia/Darwin,10,N,N,8298768,,340,3
973,BTE,Bonthe,SL,SL,GFBN,BTE,7.000000,-12.008333,Africa/Freetown,0,N,N,7668277,,230,2
974,BTF,"Salt Lake Skypark",US,US,,BTF,40.883330,-111.883330,America/Denver,-7,N,N,0,,000,1
975,BTG,Batangafo,CF,CF,FEGF,BTG,7.416667,18.333332,Africa/Bangui,1,N,N,7668235,,230,2
976,BTH,"Hang Nadim",ID,ID,WIKB,BTH,1.123627,104.115280,Asia/Jakarta,7,N,N,6301230,,320,3
977,BTI,"Barter Island",US,US,PABA,BTI,70.134720,-143.578340,America/Anchorage,-9,N,N,5880061,AK,008,1
978,BTJ,"Sultan Iskandarmuda Airport",ID,ID,WITT,BTJ,5.518021,95.418330,Asia/Jakarta,7,N,N,6301251,,320,3
979,BTK,Bratsk,RU,XU,UIBB,BTK,56.366670,101.816666,Asia/Irkutsk,9,N,N,6300944,,360,3
980,BTL,"WK Kellogg Regional",US,US,KBTL,BTL,42.372780,-85.264810,America/Detroit,-5,N,N,5013354,MI,000,1
981,BTM,"Bert Mooney Airport",US,US,KBTM,BTM,45.951110,-112.493890,America/Denver,-7,N,N,5642934,MT,000,1
982,BTN,Bennettsville,US,US,,BTN,34.616670,-79.683334,America/New_York,-5,N,N,0,,000,1
983,BTO,Botopasie,SR,SR,,BTO,4.250000,-55.450000,America/Paramaribo,-3,N,N,0,,140,1
984,BTP,"Butler County - Kenny Scholter Field",US,US,KBTP,BTP,40.850000,-79.916664,America/New_York,-5,N,N,5182570,,000,1
985,BTQ,Butare,RW,RW,,BTQ,-2.600000,29.733334,Africa/Kigali,2,N,N,203112,,230,2
986,BTR,Ryan,US,US,KBTR,BTR,30.532537,-91.156906,America/Chicago,-6,N,N,4315588,LA,000,1
987,BTS,"M. R. Štefánika",SK,SK,LZIB,BTS,48.170017,17.199799,Europe/Bratislava,1,N,N,6299784,,210,2
988,BTT,Bettles,US,US,PABT,BTT,66.915276,-151.526380,America/Anchorage,-9,N,N,5880577,,000,1
989,BTU,Bintulu,MY,MY,WBGB,BTU,3.171772,113.043460,Asia/Kuching,8,N,N,6301209,,320,3
990,BTV,"Burlington International",US,US,KBTV,BTV,44.469013,-73.155270,America/New_York,-5,N,N,5234381,VT,000,1
991,BTW,"Batu Licin",ID,ID,WAOC,BTW,-3.000000,116.000000,Asia/Makassar,8,N,N,7730882,,320,3
992,BTX,Betoota,AU,AU,YBEO,BTX,-25.700000,140.733340,Australia/Brisbane,10,N,N,7730883,,340,3
993,BTY,Beatty,US,US,KBTY,BTY,36.900000,-116.766670,America/Los_Angeles,-8,N,N,5550561,,000,1
994,BUA,Buka,PG,PG,AYBK,BUA,-5.422443,154.672880,Pacific/Port_Moresby,10,N,N,7668075,,340,3
995,BUB,Municipal,US,US,,BUB,41.783333,-99.133330,America/Chicago,-6,N,N,0,,000,1
996,BUC,Burketown,AU,AU,YBKT,BUC,-17.750000,139.533340,Australia/Brisbane,10,N,N,7730884,,340,3
997,BUD,"Liszt Ferenc International",HU,HU,LHBP,BUD,47.433037,19.261621,Europe/Budapest,1,N,N,6299519,,210,2
998,BUF,"Buffalo Niagara International",US,US,KBUF,BUF,42.933826,-78.731804,America/New_York,-5,N,N,5119245,NY,000,1
999,BUG,"Gen V Deslandes",AO,AO,FNBG,BUG,-12.606389,13.405556,Africa/Luanda,1,N,N,6297059,,230,2
1000,BUI,Bokondini,ID,ID,WAJB,BUI,-2.000000,133.583330,Asia/Jayapura,9,N,N,7730885,,320,3
1001,BUJ,"Ain Eddis",DZ,DZ,DAAD,BUJ,35.166668,4.150000,Africa/Algiers,1,N,N,6296360,,210,2
1002,BUK,Albuq,YE,YE,,BUK,15.833333,43.766666,Asia/Aden,3,N,N,8298717,,220,2
1003,BUL,Bulolo,PG,PG,AYBU,BUL,-7.189722,146.647780,Pacific/Port_Moresby,10,N,N,2098869,,340,3
1004,BUM,Butler,US,US,,BUM,38.266666,-94.333336,America/Chicago,-6,N,N,0,,000,1
1005,BUN,Buenaventura,CO,CO,SKBU,BUN,3.825000,-76.995834,America/Bogota,-5,N,N,6300738,,000,1
1006,BUO,Burao,SO,SO,HCMV,BUO,9.522500,45.554170,Africa/Mogadishu,3,N,N,6297288,,230,2
1007,BUP,Bhatinda,IN,IN,VIBT,BUP,30.166668,74.966670,Asia/Kolkata,6,N,N,7730886,,330,3
1008,BUQ,Bulawayo,ZW,ZW,FVBU,BUQ,-20.014933,28.622616,Africa/Harare,2,N,N,1105968,,230,2
1009,BUR,"Bob Hope",US,US,KBUR,BUR,34.196190,-118.354110,America/Los_Angeles,-8,N,N,5331863,CA,000,1
1010,BUS,Batum,GE,GE,UGSB,BUS,41.610832,41.600555,Asia/Tbilisi,4,N,N,7668499,,210,2
1011,BUV,"Bella Union",UY,UY,,BUV,-30.333332,-57.083332,America/Montevideo,-2,N,N,7730887,,170,1
1012,BUW,Baubau,ID,ID,WAWB,BUW,-5.466667,122.633330,Asia/Makassar,8,N,N,6301178,,320,3
1013,BUX,Bunia,CD,CD,FZKA,BUX,1.571667,30.212778,Africa/Lubumbashi,2,N,N,7668272,,230,2
1014,BUY,Bunbury,AU,AU,KBUY,BUY,-33.316666,115.633330,Australia/Perth,8,N,N,7730888,,340,3
1015,BUZ,Bushehr,IR,IR,OIBB,BUZ,28.958284,50.825424,Asia/Tehran,4,N,N,6300042,,220,2
1016,BVA,Beauvais-Tille,FR,FR,LFOB,PAR,49.459488,2.110815,Europe/Paris,1,N,N,6299427,,210,2
1017,BVB,"Boa Vista",BR,BR,SBBV,BVB,2.833333,-60.666668,America/Boa_Vista,-4,N,N,6300607,,170,1
1018,BVC,Rabil,CV,CV,GVBA,BVC,16.083332,-22.833332,Atlantic/Cape_Verde,-1,N,N,7175314,,230,2
1019,BVD,"Sea Port",US,US,,BVD,53.733334,-166.316670,America/Nome,-9,N,N,0,,000,1
1020,BVE,Laroche,FR,FR,LFBV,BVE,45.166668,1.533333,Europe/Paris,1,N,N,7536124,,210,2
1021,BVG,Berlevag,NO,NO,ENBV,BVG,70.866670,29.000000,Europe/Oslo,1,N,N,6296729,,210,2
1022,BVH,Vilhena,BR,BR,SBVH,BVH,-12.716667,-60.116670,America/Porto_Velho,-4,N,N,6300684,,170,1
1023,BVI,Birdsville,AU,AU,YBDV,BVI,-25.898333,139.343340,Australia/Brisbane,10,N,N,7730240,,340,3
1024,BVK,Huacaraje,BO,BO,,BVK,-13.550000,-63.750000,America/La_Paz,-4,N,N,3915079,AK,170,1
1025,BVL,Baures,BO,BO,,BVL,-13.583333,-63.583332,America/La_Paz,-4,N,N,7730889,,170,1
1026,BVM,Belmonte,BR,BR,SNBL,BVM,-15.833333,-38.916668,America/Bahia,-3,N,N,7730890,,170,1
1027,BVO,Bartlesville,US,US,KBVO,BVO,36.762500,-96.010830,America/Chicago,-6,N,N,4529988,,000,1
1028,BVR,Esperadinha,CV,CV,,BVR,14.866667,-24.733334,Atlantic/Cape_Verde,-1,N,N,8299069,,230,2
1029,BVS,Breves,BR,BR,SNVS,BVS,-1.666667,-50.466667,America/Belem,-3,N,N,7730891,,170,1
1030,BVU,Beluga,US,US,PABG,BVU,61.169445,-151.036120,America/Anchorage,-9,N,N,5880474,,000,1
1031,BVV,"Burevestnik AFB",RU,XU,UHSB,BVV,44.928646,147.613370,Asia/Magadan,12,N,N,8030061,,360,3
1032,BVX,Municipal,US,US,KBVX,BVX,35.766666,-91.650000,America/Chicago,-6,N,N,4100538,,000,1
1033,BVY,"Beverly Municipal Airport",US,US,KBVY,BVY,42.550000,-70.883330,America/New_York,-5,N,N,4930524,,000,1
1034,BVZ,"Beverley Springs",AU,AU,YBYS,BVZ,-15.000000,124.000000,Australia/Perth,8,N,N,7730893,,340,3
1035,BWA,Bhairawa,NP,NP,VNBW,BWA,27.504168,83.420000,Asia/Kathmandu,6,N,N,1283622,,330,3
1036,BWB,"Barrow Island",AU,AU,YBWX,BWB,-20.783333,115.416664,Australia/Perth,8,N,N,7730894,,340,3
1037,BWC,Brawley,US,US,KBWC,BWC,32.983334,-115.516670,America/Los_Angeles,-8,N,N,5330573,,000,1
1038,BWD,Brownwood,US,US,,BWD,31.794722,-98.956665,America/Chicago,-6,N,N,4676768,,000,1
1039,BWE,Braunschweig,DE,DE,EDVE,BWE,52.266666,10.533333,Europe/Berlin,1,N,N,3208632,,210,2
1040,BWF,"Walney Island",GB,GB,EGNL,BWF,54.116670,-3.233333,Europe/London,0,N,N,6296607,,210,2
1041,BWG,"Warren County",US,US,KBWG,BWG,36.962223,-86.422220,America/Chicago,-6,N,N,4285270,KY,000,1
1042,BWH,Butterworth,MY,MY,WMKB,BWH,5.466667,100.392500,Asia/Kuala_Lumpur,8,N,N,7668676,,320,3
1043,BWI,"Baltimore/Washington International Thurgood Marshall",US,US,KBWI,BWI,39.179527,-76.668940,America/New_York,-5,N,N,4347822,MD,000,1
1044,BWJ,Bawan,PG,PG,,BWJ,-6.400000,146.900000,Pacific/Port_Moresby,10,N,N,8299082,,340,3
1045,BWK,Brac,HR,HR,LDSB,BWK,43.283333,16.683332,Europe/Zagreb,1,N,N,6299320,,210,2
1046,BWL,Blackwell,US,US,,BWL,36.800000,-97.283330,America/Chicago,-6,N,N,4535485,,000,1
1047,BWM,Bowman,US,US,KBPP,BWM,46.183334,-103.400000,America/Boise,-7,N,N,5688131,,000,1
1048,BWN,"Bandar Seri Begwan International Airport",BN,BN,WBSB,BWN,4.945197,114.933750,Asia/Brunei,8,N,N,1820906,,320,3
1049,BWO,Balakovo,RU,RU,UWSB,BWO,51.866670,47.750000,Europe/Volgograd,4,N,N,7668565,,210,2
1050,BWP,Bewani,PG,PG,,BWP,-3.016667,141.150000,Pacific/Port_Moresby,10,N,N,2099579,,340,3
1051,BWQ,Brewarrina,AU,AU,YBRW,BWQ,-29.950000,146.866670,Australia/Sydney,11,N,N,7668690,,340,3
1052,BWT,"Burnie Wynyard",AU,AU,YBUI,BWT,-40.993145,145.725070,Australia/Hobart,11,N,N,7668786,,340,3
1053,BWU,"Sydney Bankstown",AU,AU,YSBK,SYD,-33.916668,151.033340,Australia/Sydney,11,N,N,6301341,,340,3
1054,BWW,"Las Brujas",CU,CU,MUBR,BWW,22.621180,-79.146970,America/Havana,-5,N,N,8298630,,140,1
1055,BXA,"George R Carr",US,US,KBXA,BXA,30.933332,-89.883330,America/Chicago,-6,N,N,4325598,,000,1
1056,BXB,Babo,ID,ID,WASO,BXB,-2.550000,133.416670,Asia/Jayapura,9,N,N,7730233,,320,3
1057,BXC,Boxborough,US,US,,BXC,42.483334,-71.533330,America/New_York,-5,N,N,0,,000,1
1058,BXD,Bade,ID,ID,WAKE,BXD,-7.166667,139.500000,Asia/Jayapura,9,N,N,7730895,,320,3
1059,BXE,Bakel,SN,SN,,BXE,14.841667,-12.467778,Africa/Dakar,0,N,N,2254441,,230,2
1060,BXF,Belburn,AU,AU,,BXF,-17.545555,128.307790,Australia/Perth,8,N,N,8298752,,340,3
1061,BXG,Bendigo,AU,AU,YBDG,BXG,-36.734722,144.301940,Australia/Melbourne,11,N,N,2176187,,340,3
1062,BXH,Balhash,KZ,KZ,,BXH,46.883330,75.016670,Asia/Almaty,6,N,N,7668487,,320,3
1063,BXI,Boundiali,CI,CI,DIBI,BXI,8.750000,-6.500000,Africa/Abidjan,0,N,N,7668183,,230,2
1064,BXJ,Burundai,KZ,KZ,UAAR,ALA,43.500000,76.950000,Asia/Almaty,6,N,N,7668486,,320,3
1065,BXK,"Buckeye Municipal",US,US,KBXK,BXK,33.366670,-112.583336,America/Phoenix,-7,N,N,5287280,,000,1
1066,BXL,"Blue Lagoon",FJ,FJ,,BXL,-16.750000,179.000000,Pacific/Fiji,13,N,N,8299059,,340,3
1067,BXM,Batom,ID,ID,,BXM,-4.116667,140.850000,Asia/Jayapura,9,N,N,7730896,,320,3
1068,BXN,Imsik,TR,TR,LTBV,BJV,37.134724,27.667221,Europe/Istanbul,2,N,N,6299759,,210,2
1069,BXO,Buochs,CH,CH,LSZC,BXO,46.966667,8.383333,Europe/Zurich,1,N,N,7730642,,210,2
1070,BXP,"Biala Podlaska",PL,PL,EPBP,BXP,52.005510,23.145420,Europe/Warsaw,1,N,N,776176,,210,2
1071,BXR,Bam,IR,IR,OIKM,BXR,29.080082,58.449356,Asia/Tehran,4,N,N,6300060,,220,2
1072,BXS,"Borrego Springs",US,US,KBXS,BXS,33.343334,-116.327780,America/Los_Angeles,-8,N,N,5330155,,000,1
1073,BXT,Bontang,ID,ID,WRLC,BXT,0.166667,117.500000,Asia/Makassar,8,N,N,7730897,,320,3
1074,BXU,Butuan,PH,PH,RPWE,BXU,8.947999,125.481230,Asia/Manila,8,N,N,1727447,,320,3
1075,BXV,Breiddalsvik,IS,IS,BIBV,BXV,64.766670,-14.000000,Atlantic/Reykjavik,0,N,N,7730425,,210,2
1076,BXX,"Borama International",SO,SO,,BXX,9.966667,43.116670,Africa/Mogadishu,3,N,N,7730898,,230,2
1077,BXZ,Bunsil,PG,PG,,BXZ,-5.716667,147.866670,Pacific/Port_Moresby,10,N,N,8261000,,340,3
1078,BYA,Boundary,US,US,,BYA,64.076385,-141.114440,America/Anchorage,-9,N,N,5857950,,000,1
